City_ID,City,Lat,Lng,Max Temp,Humidity,Cloudiness,Wind Speed,Country,Date
0,polyarnyy,69.1989,33.4478,2.16,99,100,9.23,RU,1709763764
1,scottburgh,-30.2867,30.7532,21.69,73,100,1.55,ZA,1709763764
2,grytviken,-54.2811,-36.5092,6.56,60,100,0.49,GS,1709763764
3,key west,24.5557,-81.7826,27.0,81,0,3.09,US,1709763765
4,albany,42.6001,-73.9662,10.77,94,100,0.69,US,1709763765
5,port-aux-francais,-49.35,70.2167,6.9,91,100,8.74,TF,1709763765
6,blackmans bay,-43.0167,147.3167,15.41,57,99,0.89,AU,1709763766
7,talnakh,69.4865,88.3972,-14.15,97,100,1.58,RU,1709763766
8,bonthe,7.5264,-12.505,26.06,82,13,4.49,SL,1709763767
9,udachny,66.4167,112.4,-28.35,100,100,2.37,RU,1709763767
10,carauari,-4.8828,-66.8958,28.55,76,98,0.87,BR,1709763767
11,adamstown,-25.066,-130.1015,24.27,72,73,5.89,PN,1709763768
12,odienne,9.51,-7.5692,29.27,13,50,1.41,CI,1709763768
13,ust-nera,64.5667,143.2,-25.1,100,99,1.09,RU,1709763768
14,vanimo,-2.6741,141.3028,26.62,88,95,1.86,PG,1709763769
15,tiksi,71.6872,128.8694,-28.93,100,92,1.51,RU,1709763769
16,dudinka,69.4058,86.1778,-15.18,92,99,4.02,RU,1709763769
17,avarua,-21.2078,-159.775,30.03,74,40,7.2,CK,1709763770
18,anadyr,64.75,177.4833,-16.72,78,20,4.0,RU,1709763770
19,taltal,-25.4,-70.4833,21.71,72,23,2.84,CL,1709763770
20,ust'-uda,54.1742,103.0304,-14.6,99,99,1.08,RU,1709763771
21,thompson,55.7435,-97.8558,-9.91,52,0,0.0,CA,1709763771
22,edinburgh of the seven seas,-37.0676,-12.3116,18.75,94,92,3.64,SH,1709763771
23,hermanus,-34.4187,19.2345,18.22,74,100,3.27,ZA,1709763772
24,wongsorejo,-7.9908,114.4009,26.38,87,95,0.9,ID,1709763772
25,margaret river,-33.95,115.0667,18.38,68,2,4.63,AU,1709763772
26,jamestown,42.097,-79.2353,9.73,99,100,2.24,US,1709763550
27,muisne,0.6,-80.0333,27.69,72,45,3.08,EC,1709763773
28,opuwo,-18.0607,13.84,20.71,27,64,2.47,NA,1709763773
29,cidade velha,14.9167,-23.6167,22.26,68,20,8.75,CV,1709763774
30,badger,64.8,-147.5333,-4.05,66,75,1.54,US,1709763774
31,xilin hot,43.9667,116.0333,-13.84,96,100,0.55,CN,1709763774
32,mineiros,-17.5694,-52.5511,24.39,75,75,2.39,BR,1709763775
33,katsuura,35.1333,140.3,6.92,63,100,8.78,JP,1709763775
34,bethel,41.3712,-73.414,10.99,88,100,2.57,US,1709763775
35,mingshui,36.7167,117.5,2.19,49,100,2.8,CN,1709763776
36,leteri,24.05,77.4,17.18,30,3,3.03,IN,1709763776
37,ceeldheer,3.8488,47.1806,27.38,83,7,5.01,SO,1709763776
38,seabra,-12.4186,-41.7703,21.7,85,4,1.31,BR,1709763777
39,calvinia,-31.4707,19.776,18.15,35,16,1.94,ZA,1709763777
40,puerto natales,-51.7236,-72.4875,10.15,67,94,1.63,CL,1709763778
41,hampton bays,40.869,-72.5176,8.54,97,100,5.81,US,1709763778
42,newman,37.3138,-121.0208,19.6,67,87,2.68,US,1709763779
43,tazovsky,67.4667,78.7,-17.03,96,99,4.58,RU,1709763779
44,crossett,33.1282,-91.9612,16.99,56,18,1.06,US,1709763779
45,north bend,43.4065,-124.2243,11.26,61,0,6.17,US,1709763780
46,bredasdorp,-34.5322,20.0403,17.1,75,80,2.1,ZA,1709763781
47,kaa-khem,51.6833,94.7333,-21.44,93,89,1.65,RU,1709763782
48,yellowknife,62.456,-114.3525,-12.55,88,75,4.02,CA,1709763787
49,auki,-8.7676,160.7034,28.67,77,74,0.97,SB,1709763789
50,papatowai,-46.5619,169.4708,17.5,52,27,5.16,NZ,1709763789
51,vorgashor,67.5833,63.95,-16.18,96,100,7.11,RU,1709763701
52,iqaluit,63.7506,-68.5145,-26.84,62,20,6.71,CA,1709763792
53,granger,41.7481,-86.1257,10.95,70,100,5.14,US,1709763797
54,lazaro cardenas,17.9583,-102.2,27.24,58,0,4.23,MX,1709763799
55,wailua homesteads,22.0669,-159.378,27.24,62,20,9.26,US,1709763799
56,daun,50.2,6.8333,6.66,81,90,3.6,DE,1709763800
57,tolanaro,-25.0319,46.9987,25.04,94,75,7.2,MG,1709763800
58,isafjordur,66.0755,-23.124,4.4,74,97,4.59,IS,1709763801
59,iskateley,67.6803,53.1512,-4.99,95,100,5.36,RU,1709763698
60,manicore,-5.8092,-61.3003,28.68,74,99,0.73,BR,1709763802
61,taulaga,-11.0553,-171.0883,28.86,75,0,3.77,AS,1709763802
62,hasaki,35.7333,140.8333,5.16,57,100,9.64,JP,1709763803
63,waitangi,-43.9535,-176.5597,14.34,64,97,2.51,NZ,1709763803
64,bilibino,68.0546,166.4372,-29.37,99,87,0.31,RU,1709763804
65,lebu,-37.6167,-73.65,13.98,69,100,7.17,CL,1709763804
66,antsiranana,-12.2787,49.2917,25.1,91,40,3.38,MG,1709763804
67,codrington,-38.2667,141.9667,16.39,71,97,5.17,AU,1709763805
68,tvoroyri,61.5556,-6.8111,6.99,84,100,10.62,FO,1709763805
69,la ronge,55.1001,-105.2842,-11.86,44,40,2.57,CA,1709763805
70,aykhal,66.0,111.5,-20.3,100,100,3.66,RU,1709763806
71,luderitz,-26.6481,15.1594,16.51,78,3,2.41,NA,1709763806
72,hotan,37.0997,79.9269,3.42,44,83,3.04,CN,1709763806
73,atafu village,-8.5421,-172.5159,29.06,74,26,3.53,TK,1709763807
74,st. john's,47.5649,-52.7093,5.08,96,100,6.17,CA,1709763807
75,ribeira grande,38.5167,-28.7,12.1,77,100,2.68,PT,1709763807
76,college,64.8569,-147.8028,-4.0,59,75,1.54,US,1709763808
77,bamora,24.0552,78.0909,17.11,28,4,2.93,IN,1709763808
78,kirensk,57.7853,108.1119,-10.02,97,100,2.24,RU,1709763808
79,mata-utu,-13.2816,-176.1745,28.94,76,14,6.26,WF,1709763519
80,omu-aran,8.1333,5.1,26.05,71,99,4.08,NG,1709763809
81,ngorongoro,-3.2397,35.4875,11.24,92,9,1.43,TZ,1709763810
82,santa cruz,-17.8,-63.1667,31.03,58,20,4.12,BO,1709763810
83,pimenta bueno,-11.6725,-61.1936,27.93,82,78,1.29,BR,1709763810
84,heber springs,35.4915,-92.0313,19.97,55,48,0.79,US,1709763811
85,ushuaia,-54.8,-68.3,9.81,76,100,1.03,AR,1709763811
86,margate,51.3813,1.3862,7.61,92,30,0.45,GB,1709763811
87,saldanha,-33.0117,17.9442,17.03,80,60,2.48,ZA,1709763812
88,west island,-12.1568,96.8225,26.99,94,75,6.69,CC,1709763812
89,ilulissat,69.2167,-51.1,-10.99,85,75,2.57,GL,1709763812
90,elk city,35.412,-99.4043,17.38,47,100,5.7,US,1709763813
91,kodiak,57.79,-152.4072,1.73,69,0,3.6,US,1709763813
92,sitka,57.0531,-135.33,1.94,80,100,7.72,US,1709763813
93,howard springs,-12.497,131.047,25.95,96,100,1.76,AU,1709763814
94,port douglas,-16.4833,145.4667,26.73,84,65,4.44,AU,1709763814
95,quchan,37.106,58.5095,3.26,73,94,1.97,IR,1709763814
96,copala,16.65,-98.9833,28.55,55,1,4.72,MX,1709763815
97,magadan,59.5667,150.8,-19.15,78,95,3.26,RU,1709763815
98,dumbrava rosie,46.8833,26.4333,7.61,63,100,2.27,RO,1709763815
99,al jawf,29.5,38.75,13.95,62,0,6.48,SA,1709763816
100,gadzhiyevo,69.2551,33.3362,2.05,99,100,9.59,RU,1709763816
101,baiti,13.745,-14.7482,31.66,11,20,5.94,SN,1709763816
102,whitehorse,60.7161,-135.0538,-2.72,58,75,6.17,CA,1709763817
103,alofi,-19.0595,-169.9187,26.94,83,75,6.69,NU,1709763817
104,najran,17.4924,44.1277,20.36,60,0,0.53,SA,1709763817
105,bel ombre,-4.6167,55.4167,27.91,83,20,2.06,SC,1709763818
106,nar'yan-mar,67.6713,53.087,-4.94,95,100,5.36,RU,1709763818
107,stephenville,32.2207,-98.2023,25.65,50,0,3.09,US,1709763818
108,port lincoln,-34.7333,135.8667,18.16,86,100,7.46,AU,1709763819
109,olonkinbyen,70.9221,-8.7187,1.02,92,100,6.49,SJ,1709763819
110,puerto ayora,-0.7393,-90.3518,29.98,92,77,2.68,EC,1709763820
111,palikir - national government center,6.9248,158.1611,29.41,70,75,4.12,FM,1709763820
112,invercargill,-46.4,168.35,18.9,63,50,4.02,NZ,1709763820
113,ponta delgada,37.7333,-25.6667,12.4,66,40,5.14,PT,1709763821
114,sheridan,44.8333,-106.9173,3.34,46,100,4.63,US,1709763821
115,stanley,54.868,-1.6985,5.77,94,75,2.57,GB,1709763593
116,portland,45.5234,-122.6762,9.89,56,40,2.68,US,1709763813
117,marsh harbour,26.5412,-77.0636,23.0,80,100,3.25,BS,1709763822
118,hawaiian paradise park,19.5933,-154.9731,25.02,80,40,3.6,US,1709763822
119,tabou,4.423,-7.3528,27.25,90,27,3.41,CI,1709763823
120,fisterra,42.9049,-9.2629,12.08,74,100,11.9,ES,1709763823
121,east london,-33.0153,27.9116,21.04,84,86,4.45,ZA,1709763823
122,keflavik,64.0049,-22.5624,7.24,93,75,12.35,IS,1709763824
123,westport,41.1415,-73.3579,10.25,91,100,4.12,US,1709763812
124,fort st. john,56.2499,-120.8529,-5.06,46,75,3.6,CA,1709763697
125,coquimbo,-29.9533,-71.3436,18.85,77,75,4.63,CL,1709763678
126,cambria,35.5641,-121.0808,14.41,98,100,1.34,US,1709763825
127,cam ranh,11.9214,109.1591,25.98,94,75,0.51,VN,1709763555
128,tadine,-21.55,167.8833,26.53,83,100,7.27,NC,1709763803
129,kingston,17.997,-76.7936,28.53,72,20,8.75,JM,1709763694
130,babolsar,36.7025,52.6576,9.18,67,35,2.16,IR,1709763827
131,banda aceh,5.5577,95.3222,26.27,82,75,1.93,ID,1709763827
132,deli tua,3.5078,98.6839,25.84,100,40,2.24,ID,1709763828
133,kerikeri,-35.2268,173.9474,20.51,67,95,0.45,NZ,1709763828
134,severo-yeniseyskiy,60.3725,93.0408,-10.79,95,100,2.68,RU,1709763828
135,blenheim,-41.516,173.9528,19.18,58,73,3.04,NZ,1709763701
136,filadelfia,39.9523,-75.1638,11.51,95,100,8.23,US,1709763785
137,minas de marcona,-15.2119,-75.1103,21.33,71,94,6.81,PE,1709763829
138,borovskoy,53.8,64.15,-19.29,99,49,2.02,KZ,1709763830
139,juneau,58.3019,-134.4197,1.0,90,100,7.2,US,1709763830
140,suntar,62.1444,117.6319,-31.28,100,100,1.53,RU,1709763831
141,fortaleza,-3.7227,-38.5247,28.07,83,40,5.14,BR,1709763539
142,carutapera,-1.195,-46.02,26.49,86,100,3.3,BR,1709763831
143,tobelo,1.7284,128.0095,26.73,85,76,2.31,ID,1709763832
144,aqadyr,48.2553,72.8483,-17.03,96,25,1.89,KZ,1709763832
145,shimanovsk,52.0,127.7,-18.4,98,94,1.92,RU,1709763833
146,pervomayskiy,53.2485,40.2871,-16.31,99,65,2.02,RU,1709763833
147,kuopio,62.8924,27.677,-2.03,90,100,4.12,FI,1709763834
148,victorica,-36.2151,-65.4359,31.33,32,6,2.98,AR,1709763834
149,idfu,24.9803,32.8747,20.07,31,1,5.0,EG,1709763835
150,happy valley-goose bay,53.3168,-60.3315,-6.83,49,20,4.63,CA,1709763835
151,klyuchi,52.2667,79.1667,-10.43,92,78,4.27,RU,1709763835
152,chipata,-13.6333,32.65,19.53,96,100,1.33,ZM,1709763836
153,sao borja,-28.6606,-56.0044,22.19,48,2,3.19,BR,1709763837
154,enewetak,11.3474,162.3373,25.88,79,85,10.45,MH,1709763837
155,tura,25.5198,90.2201,14.98,24,0,1.58,IN,1709763839
156,port mathurin,-19.6833,63.4167,26.37,74,76,9.55,MU,1709763839
157,kresttsy,58.2452,32.5165,-2.31,91,74,1.7,RU,1709763840
158,punta arenas,-53.15,-70.9167,11.06,58,75,1.03,CL,1709763841
159,selfoss,63.9331,-20.9971,5.58,90,100,7.63,IS,1709763841
160,pujehun,7.3581,-11.7208,26.42,78,6,2.51,SL,1709763842
161,hamilton,39.1834,-84.5333,10.69,92,100,5.66,US,1709763843
162,hobyo,5.3505,48.5268,27.5,82,1,4.89,SO,1709763845
163,kotlas,61.2611,46.6556,-2.75,97,100,1.34,RU,1709763846
164,pariaman,-0.619,100.12,26.03,93,100,2.07,ID,1709763846
165,soe,-9.8607,124.284,20.24,92,99,1.23,ID,1709763847
166,bayanhongor,46.7167,100.1167,-24.77,72,3,1.7,MN,1709763847
167,fort bragg,35.139,-79.006,16.75,92,100,1.54,US,1709763848
168,liwale,-9.7667,37.9333,20.67,98,3,0.88,TZ,1709763849
169,oranjemund,-28.55,16.4333,16.28,80,2,0.88,NA,1709763850
170,nemuro,43.3236,145.575,-3.72,69,4,6.19,JP,1709763851
171,bardai,11.65,7.2333,31.57,14,98,1.91,NG,1709763851
172,dunedin,-45.8742,170.5036,16.41,52,57,1.05,NZ,1709763852
173,tremp,42.167,0.8949,6.95,62,40,1.8,ES,1709763853
174,fougamou,-1.2154,10.5838,22.95,99,98,0.27,GA,1709763853
175,plastun,44.7561,136.2939,-9.44,72,1,2.66,RU,1709763854
176,georgetown,5.4112,100.3354,27.96,88,40,1.54,MY,1709763557
177,vilyuysk,63.7553,121.6247,-30.0,100,100,1.34,RU,1709763855
178,hithadhoo,-0.6,73.0833,27.9,70,100,4.45,MV,1709763856
179,cabo san lucas,22.8909,-109.9124,27.17,29,75,7.2,MX,1709763764
180,magadi,12.9667,77.2333,23.09,44,56,2.46,IN,1709763858
181,tripoli,32.8752,13.1875,14.9,62,100,2.42,LY,1709763858
182,manokwari,-0.8667,134.0833,26.54,82,95,1.58,ID,1709763859
183,petropavlovsk-kamchatsky,53.0452,158.6483,-13.64,91,0,5.81,RU,1709763859
184,bereeda,11.8704,51.0579,25.97,81,43,3.64,SO,1709763860
185,quibdo,5.6947,-76.6611,30.19,79,75,1.54,CO,1709763860
186,saint-francois,46.4154,3.9054,1.47,94,0,0.0,FR,1709763795
187,kapa'a,22.0752,-159.319,27.99,61,20,9.26,US,1709763861
188,uturoa,-16.7333,-151.4333,26.96,80,100,4.2,PF,1709763862
189,kokstad,-30.5472,29.4241,14.87,89,100,1.47,ZA,1709763863
190,zyryanskoye,56.8306,86.6258,-6.53,92,100,4.51,RU,1709763863
191,multan,30.1956,71.4753,12.94,71,40,0.0,PK,1709763864
192,vorkuta,67.5,64.0,-15.94,96,100,7.14,RU,1709763700
193,nuuk,64.1835,-51.7216,-9.66,79,75,6.69,GL,1709763865
194,kerema,-7.9631,145.7785,27.29,83,100,1.64,PG,1709763865
195,zaozersk,69.4005,32.4476,2.15,99,100,9.85,RU,1709763866
196,sittwe,20.15,92.9,19.72,48,15,4.54,MM,1709763866
197,churachandpur,24.3333,93.6667,7.82,54,0,0.67,IN,1709763867
198,banff,51.1762,-115.5698,-3.43,50,49,4.12,CA,1709763867
199,zarinsk,53.7074,84.9493,-14.3,95,86,2.13,RU,1709763868
200,baruun-urt,46.6806,113.2792,-19.28,89,39,2.23,MN,1709763868
201,fairmont,39.4851,-80.1426,16.06,95,100,0.45,US,1709763869
202,callao,-12.0667,-77.15,26.16,69,0,7.2,PE,1709763643
203,at taj,24.2049,23.2857,15.36,27,0,5.28,LY,1709763871
204,nkove,-7.95,30.85,22.95,81,96,2.02,TZ,1709763871
205,iwanai,42.9744,140.5089,-2.18,66,100,3.27,JP,1709763872
206,peace river,56.2501,-117.286,-7.83,57,20,2.57,CA,1709763649
207,mount isa,-20.7333,139.5,26.87,69,100,5.14,AU,1709763874
208,alice springs,-23.7,133.8833,27.9,61,40,0.0,AU,1709763875
209,la'ie,21.6477,-157.9253,26.98,73,8,6.71,US,1709763876
210,aasiaat,68.7098,-52.8699,-16.07,94,100,2.73,GL,1709763877
211,fortuna,40.5982,-124.1573,12.03,91,100,5.14,US,1709763877
212,constantia,44.1833,28.65,3.38,71,99,0.78,RO,1709763878
213,coffs harbour,-30.3,153.1333,23.98,64,63,2.57,AU,1709763878
214,rongelap,11.1635,166.8941,26.19,78,100,10.34,MH,1709763878
215,chibougamau,49.9168,-74.3659,-2.21,43,0,2.57,CA,1709763879
216,segezha,63.7415,34.3222,-8.69,97,96,2.09,RU,1709763879
217,nizhnyaya poyma,56.1622,97.1933,-12.58,95,78,1.46,RU,1709763880
218,funadhoo,6.15,73.2667,27.83,72,8,3.81,MV,1709763881
219,malakwal city,32.5549,73.2122,14.67,44,100,2.8,PK,1709763881
220,cidreira,-30.1811,-50.2056,21.29,67,7,3.81,BR,1709763881
221,igarka,67.4667,86.5833,-14.85,93,98,6.4,RU,1709763882
222,castuera,38.732,-5.5439,8.38,66,100,2.88,ES,1709763882
223,san patricio,28.017,-97.5169,27.4,60,70,6.57,US,1709763882
224,laayoune,27.1622,-13.2032,17.19,88,40,7.72,EH,1709763883
225,caleta de carquin,-11.0925,-77.6267,25.37,71,96,4.4,PE,1709763883
226,iranduba,-3.2847,-60.1861,32.16,70,84,1.57,BR,1709763883
227,utrik,11.2278,169.8474,26.37,82,84,10.38,MH,1709763884
228,longyearbyen,78.2186,15.6401,-6.09,63,0,1.03,SJ,1709763884
229,fale old settlement,-9.3852,-171.2468,28.74,75,9,3.15,TK,1709763885
230,carnarvon,-24.8667,113.6333,30.34,57,51,5.84,AU,1709763885
231,sungai raya,0.7,108.9,25.32,92,100,1.73,ID,1709763885
232,lihue,21.9789,-159.3672,27.58,62,20,9.26,US,1709763749
233,sirte,31.2089,16.5887,15.5,69,98,2.82,LY,1709763886
234,flying fish cove,-10.4217,105.6791,25.82,100,100,1.03,CX,1709763886
235,ghat,24.9647,10.1728,19.81,23,0,3.57,LY,1709763887
236,pandan,14.0453,124.1694,24.56,84,25,2.17,PH,1709763887
237,kristiansund,63.1115,7.732,2.36,69,2,1.54,NO,1709763888
238,phek,25.6667,94.5,3.56,55,0,0.71,IN,1709763888
239,kapuskasing,49.4169,-82.4331,0.05,37,0,3.6,CA,1709763888
240,plouzane,48.3833,-4.6167,9.03,93,20,4.63,FR,1709763889
241,wynne,35.2245,-90.7868,18.55,59,37,2.54,US,1709763889
242,lorengau,-2.0226,147.2712,27.77,85,96,1.33,PG,1709763890
243,villazon,-22.0866,-65.5942,16.79,54,92,5.85,BO,1709763890
244,chardara,41.2547,67.9692,8.43,60,99,3.76,KZ,1709763890
245,buala,-8.145,159.5921,28.07,81,99,1.23,SB,1709763890
246,bamboo flat,11.7,92.7167,22.05,94,100,0.51,IN,1709763891
247,lodja,-3.4833,23.4333,21.55,83,31,1.18,CD,1709763891
248,weno,7.4515,151.8468,28.97,79,20,4.63,FM,1709763891
249,susuman,62.7833,148.1667,-32.23,100,94,1.34,RU,1709763892
250,la sarre,48.8002,-79.1996,-2.03,79,97,2.52,CA,1709763892
251,kharan,28.5833,65.4167,12.15,62,0,4.02,PK,1709763892
252,sant lluis,39.8526,4.2594,9.22,81,20,1.03,ES,1709763893
253,heyuan,23.7333,114.6833,13.18,80,99,1.76,CN,1709763893
254,tekirdag,40.978,27.5085,6.64,78,93,3.65,TR,1709763894
255,chifeng,42.2683,118.9636,-6.98,50,27,1.99,CN,1709763894
256,fukuecho,32.6881,128.8419,10.94,71,100,7.5,JP,1709763894
257,clearlake,38.9582,-122.6264,13.17,82,100,1.57,US,1709763895
258,toliara,-23.35,43.6667,25.69,91,100,4.65,MG,1709763895
259,manismata,-2.4667,111.0333,23.25,99,97,0.9,ID,1709763895
260,veshenskaya,49.6303,41.7334,-2.16,86,19,4.47,RU,1709763896
261,vila franca do campo,37.7167,-25.4333,12.23,67,97,10.48,PT,1709763896
262,boden,65.8252,21.6886,-2.0,100,100,1.31,SE,1709763896
263,bardsir,29.9227,56.5743,5.9,49,0,1.81,IR,1709763897
264,new castle,41.0037,-80.347,13.63,98,100,3.09,US,1709763897
265,noosa heads,-26.3833,153.15,24.63,76,36,6.02,AU,1709763897
266,parabel',58.6978,81.4825,-18.3,99,100,1.93,RU,1709763887
267,chupaca,-12.0667,-75.2833,16.72,63,100,1.55,PE,1709763898
268,labrador city,52.9463,-66.9114,-11.05,67,20,2.57,CA,1709763610
269,ishinomaki,38.4167,141.3,0.0,73,24,4.63,JP,1709763899
270,tindouf,27.6711,-8.1474,22.25,11,0,1.03,DZ,1709763899
271,fresnillo,23.1667,-102.8833,24.75,8,98,6.86,MX,1709763900
272,kosh-agach,50.0,88.6667,-18.72,78,65,0.45,RU,1709763900
273,balabac,7.9868,117.0645,26.73,79,87,3.14,PH,1709763900
274,peterhead,57.5058,-1.7981,6.22,80,94,7.15,GB,1709763901
275,carolina beach,34.0352,-77.8936,20.61,94,100,1.34,US,1709763901
276,dekalb,33.7504,-84.2333,16.77,85,75,6.17,US,1709763903
277,qamdo,31.1667,97.2333,-5.78,88,100,0.99,CN,1709763904
278,estreito,-5.7833,-43.25,24.33,92,100,1.47,BR,1709763904
279,crane,31.3974,-102.3501,25.47,20,97,3.74,US,1709763905
280,sisimiut,66.9395,-53.6735,-15.5,91,100,4.45,GL,1709763905
281,mananjary,-21.2167,48.3333,25.18,93,100,2.29,MG,1709763905
282,itapaci,-14.9508,-49.5494,23.38,90,42,0.77,BR,1709763906
283,batal,16.6875,121.6008,21.32,94,63,0.53,PH,1709763906
284,arraial do cabo,-22.9661,-42.0278,26.98,83,75,2.57,BR,1709763907
285,pangai,-19.8,-174.35,30.06,74,40,7.72,TO,1709763907
286,tromso,69.6496,18.957,1.01,86,40,3.09,NO,1709763907
287,mil'kovo,55.6078,37.7956,-9.73,99,84,1.45,RU,1709763908
288,singaparna,-7.3515,108.111,23.34,96,100,0.62,ID,1709763908
289,kirakira,-10.4544,161.9205,28.49,83,100,3.51,SB,1709763880
290,saint-georges,12.0564,-61.7485,26.59,76,0,6.74,GD,1709763909
291,egersund,58.4513,5.9997,3.38,79,100,4.56,NO,1709763909
292,nagqu,31.5,92.0,-8.52,39,82,3.15,CN,1709763910
293,sao lourenco do sul,-31.3653,-51.9783,19.68,67,1,4.09,BR,1709763910
294,sinop,41.7711,34.8709,4.98,95,100,2.6,TR,1709763654
295,nova sintra,14.8667,-24.7167,19.49,74,6,10.11,CV,1709763911
296,acarau,-2.8856,-40.12,26.69,85,99,4.78,BR,1709763911
297,saipan,15.1355,145.701,27.39,74,0,4.12,MP,1709763912
298,tianpeng,30.9866,103.9393,8.26,78,97,0.83,CN,1709763912
299,devon,50.75,-3.75,8.16,94,50,4.61,GB,1709763913
300,la passe,45.5549,-0.8967,7.23,92,31,4.26,FR,1709763913
301,forde,61.4522,5.8572,4.0,93,75,0.0,NO,1709763914
302,port alfred,-33.5906,26.891,20.1,88,89,0.89,ZA,1709763914
303,pacific grove,36.6177,-121.9166,15.68,83,100,2.68,US,1709763915
304,touros,-5.1989,-35.4608,27.47,80,100,3.97,BR,1709763916
305,stung treng,13.5259,105.9683,25.5,64,2,1.56,KH,1709763917
306,recani,31.2846,-4.2688,17.35,20,32,4.12,MA,1709763917
307,papao,-17.75,-149.55,29.82,80,100,4.85,PF,1709763918
308,malango,-2.9627,119.9001,20.3,96,100,0.95,ID,1709763884
309,kronstadt,45.6486,25.6061,5.39,66,99,2.24,RO,1709763919
310,port elizabeth,-33.918,25.5701,19.06,89,20,2.57,ZA,1709763919
311,askiz,53.1319,90.5264,-11.84,89,98,2.03,RU,1709763920
312,el granada,37.5027,-122.4694,16.08,84,40,5.66,US,1709763921
313,uacu cungo,-11.3634,15.1208,18.32,95,94,0.8,AO,1709763921
314,ketchikan,55.3422,-131.6461,1.99,86,100,7.2,US,1709763922
315,mersing,2.4312,103.8405,24.95,94,40,2.06,MY,1709763922
316,puerto deseado,-47.7503,-65.8938,14.65,47,33,4.28,AR,1709763706
317,saint-pierre,-21.3393,55.4781,23.82,78,20,2.57,RE,1709763923
318,san antonio de pale,-1.4014,5.6325,28.65,78,97,5.05,GQ,1709763923
319,kollam,8.8833,76.6,25.12,87,78,3.41,IN,1709763923
320,tsiombe,-25.3,45.4833,23.5,99,100,2.05,MG,1709763924
321,george town,5.4112,100.3354,27.96,88,40,1.54,MY,1709763924
322,salinopolis,-0.6136,-47.3561,26.94,85,88,4.59,BR,1709763925
323,korfovskiy,48.2183,135.0564,-16.3,98,73,1.29,RU,1709763925
324,geraldton,-28.7667,114.6,27.23,57,0,9.26,AU,1709763916
325,inhambane,-23.865,35.3833,26.28,93,22,3.05,MZ,1709763926
326,gornyatskiy,48.2915,40.9575,-1.72,85,66,4.49,RU,1709763926
327,ampanihy,-24.7,44.75,23.48,94,100,3.44,MG,1709763926
328,robore,-18.3333,-59.75,31.35,50,80,0.99,BO,1709763927
329,lukolela,-1.0605,17.1821,23.07,95,93,3.04,CD,1709763927
330,usogorsk,63.4106,48.6872,-3.94,96,100,3.17,RU,1709763928
331,maputo,-25.9653,32.5892,23.98,83,33,4.46,MZ,1709763928
332,afaahiti,-17.75,-149.2833,28.93,81,100,5.22,PF,1709763928
333,kayangel,8.0823,134.7173,27.83,65,80,4.31,PW,1709763929
334,mejit,10.2753,170.8646,26.55,80,100,10.59,MH,1709763868
335,novyy urgal,51.0736,132.5642,-27.66,100,93,0.59,RU,1709763930
336,mar del plata,-38.0023,-57.5575,22.75,60,0,3.58,AR,1709763895
337,vicuna,-30.0319,-70.7081,14.85,46,0,2.75,CL,1709763931
338,roma,43.2128,-75.4557,10.32,99,100,0.0,US,1709763931
339,qaqortoq,60.7167,-46.0333,-9.02,88,100,0.48,GL,1709763932
340,bubaque,11.2833,-15.8333,26.1,69,12,9.75,GW,1709763932
341,barah,13.7,30.3667,23.08,10,32,5.84,SD,1709763933
342,kargasok,59.0556,80.8572,-24.46,100,69,1.34,RU,1709763893
343,midvagur,62.0511,-7.1939,6.46,81,75,6.69,FO,1709763934
344,ambodifotatra,-16.9833,49.85,26.87,82,97,0.78,MG,1709763934
345,yatou,37.15,122.3833,-0.88,65,50,3.82,CN,1709763935
346,cherdyn',60.403,56.4787,-21.66,100,96,0.98,RU,1709763935
347,phan rang-thap cham,11.5667,108.9833,22.89,95,72,0.28,VN,1709763935
348,arraias,-12.9288,-46.9437,23.45,86,95,1.31,BR,1709763936
349,port saint john's,-31.6229,29.5448,21.13,76,55,1.81,ZA,1709763936
350,twon-brass,4.3151,6.2418,28.26,83,95,5.76,NG,1709763936
351,pago pago,-14.2781,-170.7025,30.55,79,40,4.12,AS,1709763937
352,conde,-7.2597,-34.9075,26.7,89,20,2.06,BR,1709763937
353,orizona,-17.0314,-48.2958,22.81,84,94,1.63,BR,1709763938
354,markaz-e hukumat-e darweshan,31.1323,64.1934,9.19,71,0,3.15,AF,1709763938
355,cole harbour,44.6724,-63.4751,8.85,89,100,2.24,CA,1709763938
356,praia da vitoria,38.7333,-27.0667,11.14,76,75,12.02,PT,1709763875
357,eyl,7.9803,49.8164,25.67,86,0,3.36,SO,1709763939
358,el nido,11.1858,119.3956,25.6,82,36,2.92,PH,1709763939
359,sechura,-5.5569,-80.8222,29.14,57,28,5.65,PE,1709763940
360,ghormach,35.7306,63.7826,5.05,69,5,1.78,AF,1709763940
361,fort beaufort,-32.7748,26.6338,15.31,91,22,1.54,ZA,1709763940
362,dolinsk,47.35,142.8,-16.46,95,30,1.22,RU,1709763941
363,sirjan,29.452,55.6814,8.08,46,0,2.93,IR,1709763941
364,namsos,64.4662,11.4957,-0.97,74,5,5.14,NO,1709763941
365,lubang,13.8584,120.124,26.15,80,28,5.83,PH,1709763942
366,sabha,27.0377,14.4283,15.31,28,67,4.68,LY,1709763942
367,dongcun,36.7767,121.1597,-0.43,42,75,1.68,CN,1709763942
368,ciudad insurgentes,25.2625,-111.7753,24.11,25,100,7.98,MX,1709763943
369,aldama,22.9167,-98.0667,30.83,58,83,6.11,MX,1709763943
370,caraballeda,10.6112,-66.8522,27.04,74,44,4.12,VE,1709763943
371,pesqueira,-8.3578,-36.6964,25.61,67,36,5.53,BR,1709763944
372,lompoc,34.6391,-120.4579,14.08,86,100,3.6,US,1709763944
373,myanaung,18.2833,95.3167,22.26,29,69,1.69,MM,1709763944
374,shiroi,35.8,140.0667,6.08,71,99,4.13,JP,1709763945
375,mbandaka,0.0487,18.2603,21.84,96,97,3.03,CD,1709763945
376,porkhov,57.765,29.5561,-2.48,76,2,1.68,RU,1709763945
377,bodo,67.28,14.405,0.99,75,0,4.12,NO,1709763946
378,abadan,30.3392,48.3043,14.97,67,0,1.03,IR,1709763946
379,tweed heads,-28.1817,153.547,26.67,78,89,4.12,AU,1709763947
380,prienai,54.6333,23.95,-2.06,72,4,2.41,LT,1709763948
381,monte santo,-10.4378,-39.3328,27.46,47,7,2.76,BR,1709763949
382,felipe carrillo puerto,19.5833,-88.05,30.8,55,77,3.36,MX,1709763950
383,ancud,-41.8697,-73.8203,13.83,59,35,3.77,CL,1709763950
384,krutaya gorka,55.3649,73.2231,-11.18,96,98,2.77,RU,1709763950
385,loikaw,19.6742,97.2094,17.45,35,57,1.68,MM,1709763951
386,ilha de mocambique,-15.0342,40.7358,26.98,92,100,5.38,MZ,1709763951
387,saint-philippe,-21.3585,55.7679,23.77,82,100,4.71,RE,1709763953
388,cockburn town,21.4612,-71.1419,25.11,80,6,7.24,TC,1709763953
389,borba,-4.3878,-59.5939,29.21,74,62,0.95,BR,1709763954
390,tual,-5.6667,132.75,29.12,75,76,1.63,ID,1709763911
391,dakhla,23.6848,-15.958,16.73,88,14,9.64,EH,1709763872
392,charleston,32.7766,-79.9309,25.06,80,0,5.14,US,1709763955
393,kavaratti,10.5669,72.642,27.34,72,100,5.74,IN,1709763955
394,hadibu,12.65,54.0333,26.33,82,66,4.01,YE,1709763956
395,thinadhoo,0.5333,72.9333,27.86,72,100,3.81,MV,1709763956
396,padang,-0.9492,100.3543,26.03,90,100,1.22,ID,1709763957
397,nabire,-3.3667,135.4833,25.34,92,83,0.73,ID,1709763958
398,berdigestyakh,62.0989,126.6992,-33.35,100,100,1.28,RU,1709763958
399,cam pha mines,21.0167,107.3,18.12,77,78,3.34,VN,1709763959
400,chandauli,25.2667,83.2667,14.03,30,0,3.41,IN,1709763959
401,saudarkrokur,65.7461,-19.6394,3.41,77,100,3.93,IS,1709763959
402,laguna,38.421,-121.4238,17.79,62,0,2.57,US,1709763946
403,klaksvik,62.2266,-6.589,6.51,85,98,10.64,FO,1709763883
404,barra do garcas,-15.89,-52.2567,29.32,74,40,0.0,BR,1709763967
405,la paz,-16.5,-68.15,14.99,60,75,4.12,BO,1709763786
406,key biscayne,25.6937,-80.1628,26.68,71,75,0.0,US,1709763870
407,nuku'alofa,-21.1333,-175.2,31.19,74,40,5.66,TO,1709763717
408,sinabang,2.4803,96.3801,26.4,83,98,1.5,ID,1709763869
409,maryville,35.7565,-83.9705,15.06,96,100,2.57,US,1709763971
410,oshnaviyeh,37.0397,45.0983,3.49,94,44,2.14,IR,1709763978
411,piranhas,-16.4269,-51.8222,25.96,78,61,1.19,BR,1709763982
412,quelimane,-17.8786,36.8883,26.47,91,100,1.58,MZ,1709763982
413,juan griego,11.0817,-63.9655,30.07,66,1,9.77,VE,1709763983
414,laojunmiao,39.8333,97.7333,-8.39,33,0,4.14,CN,1709763983
415,aguas formosas,-17.0822,-40.9358,26.61,71,52,0.87,BR,1709763983
416,kattivakkam,13.2167,80.3167,25.06,75,45,3.7,IN,1709763984
417,viedma,-40.8135,-62.9967,18.28,41,64,6.89,AR,1709763984
418,colonia,50.9333,6.95,7.76,82,0,2.57,DE,1709763723
419,brokopondo,4.75,-55.1667,26.52,83,15,3.89,SR,1709763985
420,new norfolk,-42.7826,147.0587,16.62,60,100,1.12,AU,1709763985
421,balikpapan,-1.2675,116.8289,24.55,100,20,2.06,ID,1709763985
422,boda,4.3189,17.4695,24.8,73,100,2.27,CF,1709763986
423,bunia,1.5667,30.25,20.0,74,0,2.05,CD,1709763986
424,zapadnaya dvina,56.259,32.0745,-5.87,88,6,0.9,RU,1709763986
425,huarmey,-10.0681,-78.1522,25.45,72,74,4.14,PE,1709763987
426,manavgat,36.7867,31.4431,13.07,68,4,2.35,TR,1709763987
427,shimoda,34.6667,138.95,5.06,83,100,7.05,JP,1709763988
428,mgandu,-5.95,34.1333,16.11,97,18,1.72,TZ,1709763988
429,kailua-kona,19.6406,-155.9956,26.98,70,75,4.63,US,1709763843
430,urumqi,43.801,87.6005,-10.47,86,20,1.0,CN,1709763866
431,junqueiro,-9.9253,-36.4758,26.48,80,8,5.2,BR,1709763989
432,kidal,18.4411,1.4078,24.08,7,0,5.15,ML,1709763990
433,lakhdenpokh'ya,61.5198,30.1992,-0.14,82,100,1.89,RU,1709763990
434,yeniseysk,58.4497,92.1703,-5.03,90,100,3.13,RU,1709763990
435,yuzhno-kurilsk,44.0306,145.8556,-5.35,81,14,5.11,RU,1709763991
436,shumikha,55.2261,63.2961,-19.7,100,73,1.72,RU,1709763991
437,sandnessjoen,66.0217,12.6316,-1.94,80,0,3.09,NO,1709763992
438,waingapu,-9.6567,120.2641,26.71,86,99,2.52,ID,1709763992
439,ugoofaaru,5.6667,73.0,27.72,73,76,3.46,MV,1709763992
440,ibimirim,-8.5406,-37.6903,29.88,48,31,7.46,BR,1709763993
441,kamloops,50.6665,-120.3192,3.1,48,20,3.09,CA,1709763965
442,kasane,-17.8167,25.15,21.61,73,34,0.95,BW,1709763993
443,braganca,-1.0536,-46.7656,25.29,90,96,1.1,BR,1709763994
444,tobol'sk,58.2,68.2667,-24.11,100,66,1.79,RU,1709763994
445,pratt,37.6439,-98.7376,17.64,58,0,5.14,US,1709763972
446,morehead city,34.7229,-76.726,19.03,88,100,7.72,US,1709763832
447,chernogorsk,53.8236,91.2842,-8.24,93,98,0.0,RU,1709763995
448,khvoynaya,58.9,34.5333,-4.15,96,100,1.59,RU,1709763996
449,mount pearl,47.5166,-52.7813,4.62,96,100,6.17,CA,1709763997
450,conduaga,8.862,117.4893,25.39,82,39,2.1,PH,1709763997
451,sabang,5.8933,95.3214,28.0,72,94,3.02,ID,1709763997
452,dubti,11.7361,41.0853,26.84,63,39,8.54,ET,1709763998
453,sulak,43.2734,47.5146,6.74,96,100,3.67,RU,1709763998
454,emerald,-23.5333,148.1667,24.63,65,3,5.62,AU,1709763971
455,i-n-salah,27.1935,2.4607,19.1,22,72,7.11,DZ,1709763999
456,pelabuhanratu,-6.9875,106.5514,26.34,88,100,0.78,ID,1709763999
457,lubao,14.9167,120.55,24.84,91,74,1.63,PH,1709764000
458,rio grande,-32.035,-52.0986,20.53,65,0,4.19,BR,1709763838
459,remire-montjoly,4.9167,-52.2667,28.02,83,100,3.6,GF,1709764001
460,beli,7.8587,10.9719,29.69,42,50,1.79,NG,1709764001
461,urangan,-25.3,152.9,26.78,82,6,4.02,AU,1709764002
462,rawson,-43.3002,-65.1023,18.06,35,0,5.09,AR,1709764002
463,senillosa,-39.0,-68.4167,26.88,11,27,3.13,AR,1709764002
464,ataq,14.5377,46.8319,20.99,68,0,3.18,YE,1709764003
465,ganjam,19.3833,85.0667,25.29,76,17,3.17,IN,1709764003
466,castillos,-34.1667,-53.8333,16.58,65,0,3.24,UY,1709764003
467,hluti,-27.2167,31.6167,18.79,89,61,1.19,SZ,1709764004
468,olinda,-8.0089,-34.8553,27.85,78,20,3.09,BR,1709763762
469,kalmunai,7.4167,81.8167,24.63,83,100,1.63,LK,1709764004
470,las vegas,36.175,-115.1372,21.38,16,0,7.6,US,1709763862
471,mizdah,31.4451,12.9801,13.31,55,99,3.9,LY,1709764005
472,greymouth,-42.4667,171.2,15.29,71,97,2.01,NZ,1709764005
473,kourou,5.1552,-52.6478,28.03,89,100,3.66,GF,1709764006
474,mangai,-4.05,19.5333,23.32,88,54,0.7,CD,1709764006
475,island harbour,50.724,-1.2758,6.77,92,5,1.34,GB,1709764006
476,chonchi,-42.6128,-73.8092,15.56,57,85,0.61,CL,1709764007
477,selty,57.3132,52.1345,-16.85,100,97,0.09,RU,1709764007
478,beichengqu,40.4394,113.1536,-4.03,52,10,4.32,CN,1709764007
479,matam,15.6175,-13.3303,31.0,33,0,1.03,SN,1709764008
480,coro,11.4045,-69.6734,28.8,71,5,9.95,VE,1709764008
481,kill devil hills,36.0307,-75.676,17.0,98,100,4.63,US,1709764009
482,beau vallon,-20.4189,57.6953,24.13,94,75,3.6,MU,1709764009
483,vilyuchinsk,52.9306,158.4028,-12.82,82,25,3.07,RU,1709764009
484,oswestry,52.862,-3.055,7.53,93,91,0.45,GB,1709764010
485,tan-tan,28.438,-11.1032,15.91,84,99,5.4,MA,1709764010
486,egilsstadir,65.2653,-14.3948,5.95,75,75,7.2,IS,1709764010
487,queenstown,-31.8976,26.8753,12.95,89,29,1.03,ZA,1709764011
488,arteche,12.2645,125.4048,25.52,80,100,2.81,PH,1709764011
489,haiku-pauwela,20.9219,-156.3051,24.17,85,40,8.23,US,1709764011
490,baffa,34.4378,73.2194,9.37,75,100,2.21,PK,1709764012
491,nova vicosa,-17.8919,-39.3719,26.88,84,6,5.24,BR,1709763769
492,sinjai,-5.1241,120.253,24.7,89,100,1.72,ID,1709764012
493,casas grandes,30.3667,-107.95,20.61,10,99,7.99,MX,1709764013
494,broken hill,-31.95,141.4333,26.33,22,96,4.66,AU,1709764013
495,sosnovo,60.5514,30.2144,-1.45,80,100,1.64,RU,1709764013
496,sungai penuh,-2.0833,101.3833,19.3,99,100,0.61,ID,1709764014
497,labytnangi,66.6572,66.4183,-16.51,93,100,2.88,RU,1709764014
498,tharangambadi,11.0319,79.8528,24.5,77,11,3.69,IN,1709764014
499,kanker,20.2719,81.4931,25.52,44,85,1.95,IN,1709764015
500,nadi,-17.8,177.4167,31.0,66,75,4.12,FJ,1709763888
501,hirara,24.8,125.2833,18.92,94,75,8.23,JP,1709764015
502,revolucion mexicana,26.311,-108.9435,27.3,19,99,6.16,MX,1709764016
503,presque isle,46.6811,-68.0159,6.68,87,100,1.54,US,1709764016
504,ambam,2.3833,11.2833,22.67,96,100,1.83,CM,1709764016
505,lerwick,60.1545,-1.1494,6.0,79,99,7.87,GB,1709763751
506,bac lieu,9.285,105.7244,25.55,82,33,1.22,VN,1709764018
507,kalmeshwar,21.2333,78.9,23.79,27,0,3.05,IN,1709764018
508,pacasmayo,-7.4006,-79.5714,25.67,67,98,5.88,PE,1709764020
509,priob'ye,62.5206,65.5964,-28.19,100,100,0.97,RU,1709764021
510,meadow lake,34.8014,-106.5436,17.39,19,100,3.08,US,1709764022
511,cruzeiro do sul,-29.5128,-51.9853,22.5,71,0,2.86,BR,1709763824
512,ruyigi,-3.45,30.3167,14.81,94,44,1.15,BI,1709764023
513,protaras,35.0125,34.0583,12.22,77,0,0.89,CY,1709764023
514,basco,20.4487,121.9702,23.84,80,94,9.13,PH,1709764023
515,kashin,57.3592,37.6081,-5.02,94,97,2.09,RU,1709764024
516,ruteng,-8.6136,120.4721,18.12,94,94,0.44,ID,1709764024
517,birao,10.2849,22.7882,25.02,11,38,2.7,CF,1709764025
518,lichuan,30.3,108.85,3.47,95,100,0.73,CN,1709764025
519,sparti,37.0733,22.4297,12.19,92,16,2.11,GR,1709764025
520,zhanaozen,43.3,52.8,4.92,52,72,4.49,KZ,1709764026
521,itacare,-14.2775,-38.9967,26.83,86,0,2.94,BR,1709764026
522,greenville,35.6127,-77.3663,14.97,99,100,6.69,US,1709763938
523,al kharijah,25.4514,30.5464,17.19,30,1,4.02,EG,1709764027
524,weinan,34.5036,109.5089,7.41,45,100,2.23,CN,1709764027
525,puerto baquerizo moreno,-0.9,-89.6,27.55,78,75,2.57,EC,1709764028
526,las heras,-46.5419,-68.9359,18.25,22,14,6.41,AR,1709764028
527,yarmouth,41.7057,-70.2286,8.31,96,100,2.06,US,1709764028
528,jagtial,18.8,78.9333,25.97,44,41,0.6,IN,1709764029
529,constitucion,-35.3333,-72.4167,17.65,62,5,7.36,CL,1709764029
530,andrelandia,-21.7397,-44.3092,20.35,95,89,1.84,BR,1709764030
531,akureyri,65.6835,-18.0878,5.96,65,0,5.66,IS,1709764030
532,antofagasta,-23.65,-70.4,22.6,75,22,3.74,CL,1709763823
533,iquitos,-3.7481,-73.2472,24.02,94,75,1.54,PE,1709764031
534,malvan,16.0667,73.4667,22.15,61,6,3.68,IN,1709764031
535,san pedro de macoris,18.4616,-69.2972,29.34,69,28,5.05,DO,1709764032
536,hegang,47.4,130.3667,-17.17,96,12,1.94,CN,1709764032
537,buka,40.8108,69.1986,6.26,68,100,0.34,UZ,1709764032
538,mount gambier,-37.8333,140.7667,14.61,78,31,3.72,AU,1709764033
539,coron,11.9986,120.2043,23.6,81,10,1.08,PH,1709764033
540,teguise,29.0605,-13.564,15.12,67,40,2.57,ES,1709764034
541,shimokizukuri,40.8061,140.3861,-1.38,81,96,1.31,JP,1709764034
542,tucacas,10.7906,-68.3258,26.95,80,14,4.62,VE,1709764034
543,concepcion,-36.827,-73.0498,18.89,52,0,7.2,CL,1709764035
544,hassi messaoud,31.6804,6.0729,13.92,38,0,0.51,DZ,1709764035
545,kirovskiy,45.0917,133.5136,-15.71,95,76,2.01,RU,1709764036
546,prairie du chien,43.0517,-91.1412,13.05,19,0,5.14,US,1709764036
547,suva,-18.1416,178.4415,29.71,79,40,6.17,FJ,1709764037
548,barra de santo antonio,-9.4047,-35.5072,25.6,81,43,3.96,BR,1709764037
549,mao,39.8885,4.2658,9.31,81,20,1.03,ES,1709764037
550,tongshan,34.1805,117.1571,4.1,73,100,1.57,CN,1709764038
551,santiago tangamandapio,19.95,-102.4333,28.55,14,18,4.96,MX,1709764038
552,sanya,18.2431,109.505,25.09,88,75,3.0,CN,1709764038
553,yaren,-0.5472,166.916,28.05,81,100,5.1,NR,1709764039
554,heber city,40.5069,-111.4132,9.05,42,75,5.66,US,1709764039
555,stiens,53.2623,5.7577,6.99,84,100,2.06,NL,1709764040
556,macusani,-14.0833,-70.4333,8.13,78,97,2.79,PE,1709764040
557,allendale,42.9723,-85.9537,12.26,39,4,1.34,US,1709763828
558,alupka,44.4167,34.05,5.81,79,96,1.16,UA,1709764041
559,pala,9.3642,14.9046,32.84,14,100,1.51,TD,1709764041
560,kuldiga,56.974,21.9572,-4.17,67,6,1.3,LV,1709764041
561,nantucket,41.2835,-70.0995,7.08,100,100,1.54,US,1709764038
562,adam,22.3756,57.5233,24.27,70,1,2.36,OM,1709764042
563,kukawa,12.9234,13.5606,30.21,21,79,4.37,NG,1709764043
564,cooma,-36.2333,149.1333,19.35,54,0,0.62,AU,1709764043
565,lobujya,27.95,86.8167,-17.79,66,1,1.03,NP,1709764043
566,ulsteinvik,62.3432,5.8487,5.97,73,72,3.58,NO,1709764044
567,puerto san jose,13.9256,-90.8244,32.03,55,75,5.14,GT,1709764044
568,manghit,42.1156,60.0597,-2.01,50,0,3.28,UZ,1709764045
569,tuy hoa,13.0833,109.3,22.64,93,3,1.15,VN,1709764045
