City_ID,City,Lat,Lng,Max Temp,Humidity,Cloudiness,Wind Speed,Country,Date
0,aasiaat,68.7098,-52.8699,-21.72,90,37,4.16,GL,1708709477
1,avarua,-21.2078,-159.775,26.03,94,75,3.6,CK,1708709478
2,gaalkacyo,6.7697,47.4308,26.24,51,85,10.73,SO,1708708979
3,qaqortoq,60.7167,-46.0333,-7.92,61,26,1.06,GL,1708708979
4,wailua homesteads,22.0669,-159.378,21.24,77,49,0.89,US,1708709479
5,port-aux-francais,-49.35,70.2167,8.76,95,100,13.53,TF,1708708724
6,ola,59.5833,151.2833,-23.56,85,96,4.01,RU,1708708980
7,talnakh,69.4865,88.3972,-18.22,97,100,4.54,RU,1708708980
8,atafu village,-8.5421,-172.5159,28.96,74,31,3.94,TK,1708709481
9,paoua,7.2427,16.4406,30.75,19,99,3.83,CF,1708708981
10,visby,57.6409,18.296,4.12,81,0,10.29,SE,1708708981
11,bilibino,68.0546,166.4372,-33.35,99,100,0.98,RU,1708708981
12,mejit,10.2753,170.8646,26.35,84,73,9.93,MH,1708708982
13,nguigmi,14.2495,13.1092,28.02,39,43,3.41,NE,1708708802
14,bengkulu,-3.8004,102.2655,25.96,88,100,1.67,ID,1708708735
15,jamestown,42.097,-79.2353,10.57,61,35,3.58,US,1708708702
16,huarmey,-10.0681,-78.1522,27.08,73,45,5.0,PE,1708708984
17,northam,51.0333,-4.2167,5.37,88,90,6.15,GB,1708708984
18,nago,26.5881,127.9761,20.25,77,99,4.2,JP,1708708984
19,waitangi,-43.9535,-176.5597,17.12,95,29,1.34,NZ,1708708985
20,okhotsk,59.3833,143.3,-24.01,78,13,6.63,RU,1708708985
21,mansa,29.9833,75.3833,11.95,24,55,0.27,IN,1708708986
22,baxter,46.3433,-94.2867,-0.1,50,75,6.69,US,1708708986
23,tacuarembo,-31.7333,-55.9833,37.01,24,13,1.68,UY,1708708986
24,grytviken,-54.2811,-36.5092,8.42,91,100,6.79,GS,1708708987
25,chonchi,-42.6128,-73.8092,18.4,46,93,1.04,CL,1708708987
26,longyearbyen,78.2186,15.6401,-4.09,68,75,5.66,SJ,1708708988
27,newman,37.3138,-121.0208,9.6,91,100,2.6,US,1708708988
28,isafjordur,66.0755,-23.124,-1.86,90,98,5.74,IS,1708708989
29,arraial do cabo,-22.9661,-42.0278,29.92,70,75,4.12,BR,1708708989
30,broome,42.2506,-75.833,7.6,92,100,1.54,US,1708708990
31,mandalgovi,45.7625,106.2708,-19.64,96,10,2.1,MN,1708708990
32,puerto armuelles,8.2833,-82.8667,32.99,54,12,1.79,PA,1708708990
33,westport,41.1415,-73.3579,8.02,82,100,2.57,US,1708708991
34,blackmans bay,-43.0167,147.3167,14.07,71,94,2.68,AU,1708708991
35,hami,42.8,93.45,-4.47,57,40,2.39,CN,1708708992
36,bashmakovo,53.2133,43.0342,-7.82,95,100,5.39,RU,1708708993
37,adamstown,-25.066,-130.1015,26.18,80,62,4.84,PN,1708708994
38,chimbote,-9.0853,-78.5783,27.3,69,31,4.69,PE,1708708994
39,san antonio de pale,-1.4014,5.6325,25.72,89,100,1.97,GQ,1708708994
40,enewetak,11.3474,162.3373,25.97,80,90,9.23,MH,1708708878
41,edinburgh of the seven seas,-37.0676,-12.3116,16.84,74,84,5.47,SH,1708708995
42,dawson creek,55.7666,-120.2362,4.02,60,100,8.43,CA,1708708996
43,olonkinbyen,70.9221,-8.7187,-0.93,91,75,10.55,SJ,1708708996
44,arapgir,39.0412,38.4952,4.33,72,20,0.93,TR,1708708997
45,mezhdurechensk,53.6942,88.0603,-26.77,98,62,1.71,RU,1708708997
46,turtas,58.9417,69.1325,-11.94,95,100,3.09,RU,1708708998
47,iskateley,67.6803,53.1512,-1.1,94,100,7.6,RU,1708708998
48,bethel,41.3712,-73.414,6.21,85,75,2.57,US,1708708999
49,fort mcmurray,56.7268,-111.381,4.77,48,72,7.72,CA,1708708999
50,sakata,38.9167,139.855,0.11,68,97,5.28,JP,1708708999
51,margaret river,-33.95,115.0667,18.48,85,100,5.18,AU,1708709000
52,mil'kovo,55.6078,37.7956,1.91,93,100,6.44,RU,1708709000
53,fish town,5.1964,-7.8756,31.25,52,87,2.98,LR,1708709001
54,port mathurin,-19.6833,63.4167,27.2,86,64,6.01,MU,1708709001
55,vilyuchinsk,52.9306,158.4028,-16.15,86,89,4.02,RU,1708709002
56,labytnangi,66.6572,66.4183,-18.21,99,97,1.54,RU,1708709002
57,vila velha,-20.3297,-40.2925,29.97,81,20,6.17,BR,1708709003
58,udachny,66.4167,112.4,-25.2,77,100,1.26,RU,1708709003
59,le vauclin,14.5452,-60.8388,30.03,58,100,6.17,MQ,1708709004
60,tucumcari,35.1717,-103.725,11.08,46,0,2.06,US,1708709004
61,rabigh,22.7986,39.0349,25.99,70,0,4.15,SA,1708709005
62,nova sintra,14.8667,-24.7167,21.45,68,96,7.55,CV,1708708719
63,utrik,11.2278,169.8474,25.93,83,98,10.39,MH,1708708878
64,alaghsas,17.0187,8.0168,27.9,7,0,5.25,NE,1708709006
65,santa vitoria do palmar,-33.5189,-53.3681,32.16,42,69,1.59,BR,1708709006
66,ciudad melchor muzquiz,27.8833,-101.5167,21.88,29,84,1.34,MX,1708709006
67,yellowknife,62.456,-114.3525,-10.71,85,75,2.57,CA,1708709007
68,quellon,-43.1167,-73.6167,14.51,59,99,4.04,CL,1708709007
69,thompson,55.7435,-97.8558,-19.65,78,34,2.31,CA,1708709008
70,remire-montjoly,4.9167,-52.2667,31.02,66,75,7.2,GF,1708709008
71,bredasdorp,-34.5322,20.0403,21.81,61,18,4.69,ZA,1708709008
72,kodiak,57.79,-152.4072,-8.27,86,0,2.57,US,1708709009
73,masterton,-40.9597,175.6575,17.28,94,50,1.72,NZ,1708709009
74,banamba,13.55,-7.45,33.25,4,7,3.32,ML,1708709010
75,mazyr,52.0495,29.2456,8.76,72,100,6.55,BY,1708709010
76,punta arenas,-53.15,-70.9167,11.06,43,40,10.8,CL,1708709010
77,san luis,-33.295,-66.3356,25.74,31,33,6.77,AR,1708709015
78,kuala belait,4.5833,114.1833,27.09,88,37,2.69,BN,1708709016
79,talcahuano,-36.7167,-73.1167,20.82,49,0,6.69,CL,1708708816
80,iqaluit,63.7506,-68.5145,-27.95,68,75,0.0,CA,1708709016
81,nabire,-3.3667,135.4833,24.5,93,97,0.93,ID,1708709017
82,urengoy,65.9667,78.3667,-22.48,100,70,3.82,RU,1708709017
83,port lincoln,-34.7333,135.8667,16.73,64,71,6.06,AU,1708709018
84,zuunmod,47.7069,106.9528,-29.43,94,13,0.93,MN,1708709018
85,amos,48.5669,-78.1162,-17.23,81,100,4.66,CA,1708709018
86,west island,-12.1568,96.8225,28.99,79,40,5.14,CC,1708709019
87,turpan,42.9333,89.1667,-0.02,31,99,1.14,CN,1708709019
88,invercargill,-46.4,168.35,15.75,65,99,4.7,NZ,1708709020
89,tiksi,71.6872,128.8694,-28.09,99,45,3.13,RU,1708709020
90,klaksvik,62.2266,-6.589,4.51,74,77,8.78,FO,1708709021
91,tangalle,6.024,80.7911,26.1,84,100,2.55,LK,1708709021
92,shenjiamen,29.9576,122.298,3.58,92,100,9.21,CN,1708709022
93,papatowai,-46.5619,169.4708,15.32,65,77,2.89,NZ,1708709022
94,hawaiian paradise park,19.5933,-154.9731,21.13,93,75,0.0,US,1708709023
95,lihue,21.9789,-159.3672,21.58,77,60,4.26,US,1708709023
96,andkhoy,36.9529,65.1238,9.15,39,69,2.69,AF,1708709023
97,semporna,4.4818,118.6112,26.22,87,9,2.83,MY,1708709024
98,el calafate,-50.3408,-72.2768,10.17,46,99,4.37,AR,1708709024
99,portage la prairie,49.9728,-98.2926,-11.61,60,41,2.35,CA,1708709025
100,constantia,44.1833,28.65,9.38,86,29,7.64,RO,1708709025
101,puerto natales,-51.7236,-72.4875,11.25,50,75,6.69,CL,1708708749
102,klyuchi,52.2667,79.1667,-17.57,89,100,3.05,RU,1708709026
103,hongwon,40.0253,127.9558,-3.59,81,88,2.0,KP,1708709027
104,meadow lake,34.8014,-106.5436,10.67,32,73,4.13,US,1708709027
105,puerto baquerizo moreno,-0.9,-89.6,27.55,89,75,4.63,EC,1708709028
106,novosokol'niki,56.3463,30.1578,2.43,97,100,6.2,RU,1708709028
107,mount isa,-20.7333,139.5,24.87,83,30,2.06,AU,1708709028
108,aktobe,50.2797,57.2072,-23.95,77,0,1.0,KZ,1708709029
109,nuuk,64.1835,-51.7216,-8.66,48,75,5.66,GL,1708709029
110,ulysses,37.5814,-101.3552,14.16,47,0,8.75,US,1708709030
111,rongelap,11.1635,166.8941,26.14,81,96,10.1,MH,1708709030
112,bikenibeu village,1.3673,173.1241,27.98,89,20,1.54,KI,1708708745
113,langepas,61.2544,75.2124,-17.49,98,95,3.37,RU,1708709031
114,acarau,-2.8856,-40.12,28.41,72,98,2.72,BR,1708709032
115,tagiura,32.8817,13.3506,17.6,53,31,2.94,LY,1708709032
116,calama,-22.4667,-68.9333,23.27,31,0,9.26,CL,1708709032
117,arteche,12.2645,125.4048,24.33,85,79,2.67,PH,1708709033
118,ouahigouya,13.5828,-2.4216,34.08,6,5,2.83,BF,1708709033
119,bishkek,42.87,74.59,-5.89,95,100,1.62,KG,1708709034
120,ilulissat,69.2167,-51.1,-11.99,48,20,7.72,GL,1708708766
121,kamaishi,39.2667,141.8833,-3.54,80,64,3.17,JP,1708709035
122,zima,53.9202,102.0442,-22.29,99,100,1.27,RU,1708709035
123,sitka,57.0531,-135.33,2.94,70,40,0.0,US,1708709036
124,krasnovishersk,60.4078,57.082,-9.58,95,100,3.17,RU,1708709036
125,ushuaia,-54.8,-68.3,8.79,71,75,10.29,AR,1708709036
126,albany,42.6001,-73.9662,5.91,85,100,0.43,US,1708708762
127,akrehamn,59.2667,5.1833,5.79,87,40,5.66,NO,1708709037
128,santa lucia,27.9117,-15.5407,17.65,93,75,11.83,ES,1708709038
129,north bend,43.4065,-124.2243,11.71,93,0,2.06,US,1708709038
130,susuman,62.7833,148.1667,-28.9,99,99,0.89,RU,1708709039
131,anadyr,64.75,177.4833,-24.72,83,0,6.0,RU,1708709039
132,pokhara,28.2333,83.9833,11.41,32,35,3.35,NP,1708709039
133,tralee,52.2704,-9.7026,5.14,87,75,4.12,IE,1708709040
134,turbat,26.0023,63.044,21.58,29,11,2.43,PK,1708709040
135,murun-kuren,49.6342,100.1625,-23.78,91,5,0.98,MN,1708709040
136,nykobing sjaelland,55.9249,11.6711,7.18,78,45,8.22,DK,1708709041
137,alesund,62.4723,6.1549,5.97,93,75,11.32,NO,1708709041
138,ornskoldsvik,63.2909,18.7153,1.53,100,100,9.26,SE,1708709043
139,santana,-0.0583,-51.1817,30.1,70,75,3.09,BR,1708709043
140,sarangani,5.4033,125.4636,27.5,79,39,8.53,PH,1708709004
141,owen sound,44.5672,-80.9435,0.74,77,81,8.05,CA,1708709044
142,monze,-16.2833,27.4833,22.84,52,60,2.18,ZM,1708709045
143,puerto ayora,-0.7393,-90.3518,30.98,90,8,3.13,EC,1708709045
144,xining,36.6167,101.7667,-8.29,90,95,0.6,CN,1708709046
145,palu,-0.8917,119.8707,24.97,96,57,1.06,ID,1708709046
146,prineville,44.2999,-120.8345,6.38,74,0,1.54,US,1708709047
147,georgetown,5.4112,100.3354,28.86,78,20,2.06,MY,1708708797
148,santa ana,33.7456,-117.8678,21.07,61,75,1.54,US,1708708761
149,ulaangom,49.9811,92.0667,-33.08,90,64,1.77,MN,1708709048
150,samana,19.2056,-69.3369,29.12,74,40,2.06,DO,1708709049
151,east london,-33.0153,27.9116,23.52,94,100,6.17,ZA,1708709049
152,midvagur,62.0511,-7.1939,4.46,70,40,7.2,FO,1708709050
153,nuku'alofa,-21.1333,-175.2,25.19,100,75,3.09,TO,1708709050
154,egilsstadir,65.2653,-14.3948,0.95,93,100,5.66,IS,1708709051
155,meiktila,20.8667,95.8667,24.62,36,2,2.41,MM,1708709051
156,lodja,-3.4833,23.4333,25.11,75,100,1.06,CD,1708709051
157,kerikeri,-35.2268,173.9474,16.06,92,15,0.54,NZ,1708709052
158,mossendjo,-2.9506,12.7261,25.64,88,94,1.27,CG,1708709052
159,ulladulla,-35.35,150.4667,17.71,84,100,4.0,AU,1708709053
160,anna regina,7.2644,-58.5077,29.26,63,9,4.22,GY,1708709053
161,mount gambier,-37.8333,140.7667,12.15,80,91,2.2,AU,1708709053
162,nadym,65.5333,72.5167,-15.15,96,100,5.73,RU,1708709054
163,la gomera,14.0833,-91.05,31.57,42,0,2.89,GT,1708709055
164,igarka,67.4667,86.5833,-18.97,96,98,5.3,RU,1708709056
165,boguchany,58.3814,97.4531,-20.08,98,100,2.11,RU,1708709057
166,korsakov,46.6328,142.7813,-26.09,86,11,2.07,RU,1708709057
167,itoman,26.1247,127.6694,20.22,82,75,5.66,JP,1708709058
168,yorkton,51.2167,-102.4677,-10.09,85,100,4.63,CA,1708709058
169,whitehorse,60.7161,-135.0538,-12.63,93,100,0.53,CA,1708709059
170,fort stockton,30.894,-102.8793,16.53,37,0,6.69,US,1708709060
171,boiling springs,35.0465,-81.9818,17.08,73,75,4.12,US,1708708929
172,coronel suarez,-37.4547,-61.9334,26.28,25,87,4.3,AR,1708709061
173,lata,40.1629,-8.3327,10.6,82,63,6.42,PT,1708709061
174,cabo san lucas,22.8909,-109.9124,24.78,62,40,0.89,MX,1708708828
175,toliara,-23.35,43.6667,28.14,78,31,3.79,MG,1708709062
176,miquelon,47.0975,-56.3814,3.0,81,8,3.46,PM,1708709062
177,stanley,54.868,-1.6985,5.1,75,20,4.12,GB,1708709063
178,pishin,30.5803,66.9961,6.39,33,0,2.39,PK,1708709063
179,papao,-17.75,-149.55,28.82,80,100,3.28,PF,1708709064
180,roma,43.2128,-75.4557,8.79,94,100,1.54,US,1708708865
181,pontianak,-0.0333,109.3333,24.99,100,40,1.03,ID,1708709065
182,la sarre,48.8002,-79.1996,-18.35,81,100,5.02,CA,1708709066
183,new norfolk,-42.7826,147.0587,14.72,77,98,1.6,AU,1708709066
184,marquette,46.5333,-87.6335,-9.01,72,100,4.02,US,1708709067
185,i-n-salah,27.1935,2.4607,23.45,14,21,2.55,DZ,1708709067
186,murzuq,25.9155,13.9184,16.16,27,0,1.01,LY,1708709067
187,ambalangoda,6.2355,80.0538,26.68,83,86,2.31,LK,1708709068
188,ribeira grande,38.5167,-28.7,16.22,67,20,3.13,PT,1708709068
189,turkmenbasy,40.0222,52.9552,6.43,70,100,5.14,TM,1708709069
190,fale old settlement,-9.3852,-171.2468,28.58,76,69,3.44,TK,1708709069
191,revda,56.801,59.9303,-13.17,96,81,4.04,RU,1708709069
192,amursk,50.2261,136.8994,-27.79,100,92,0.41,RU,1708709073
193,kapa'a,22.0752,-159.319,21.99,77,54,0.45,US,1708708852
194,pisco,-13.7,-76.2167,27.03,69,0,4.63,PE,1708709074
195,codrington,-38.2667,141.9667,14.81,69,96,4.77,AU,1708709075
196,petropavlovsk-kamchatsky,53.0452,158.6483,-16.97,89,0,4.47,RU,1708709075
197,matamey,13.4231,8.4749,30.61,22,3,1.91,NE,1708709075
198,touros,-5.1989,-35.4608,30.64,63,10,6.26,BR,1708709076
199,afaahiti,-17.75,-149.2833,27.93,80,98,2.48,PF,1708709076
200,marsa alam,25.0757,34.8918,21.81,63,98,7.46,EG,1708709077
201,petukhovo,55.0692,67.9019,-24.97,93,19,2.68,RU,1708709077
202,taro,-8.3862,115.28,24.0,93,100,0.95,ID,1708709078
203,tomatlan,19.9333,-105.25,29.97,21,1,2.06,MX,1708709078
204,zanjan,36.6736,48.4787,6.03,55,67,1.58,IR,1708709079
205,lazaro cardenas,17.9583,-102.2,27.29,61,35,1.83,MX,1708709058
206,alice springs,-23.7,133.8833,28.45,36,0,3.6,AU,1708708932
207,al bawiti,28.3492,28.8659,18.12,38,100,3.44,EG,1708709080
208,fort st. john,56.2499,-120.8529,3.16,61,100,8.13,CA,1708709063
209,quartu sant'elena,39.2419,9.1839,13.93,73,20,6.69,IT,1708709081
210,walvis bay,-22.9575,14.5053,17.83,71,43,6.72,NA,1708709081
211,waiuku,-37.25,174.75,16.78,92,1,1.02,NZ,1708709082
212,hithadhoo,-0.6,73.0833,28.38,80,96,4.28,MV,1708709082
213,basco,20.4487,121.9702,25.1,67,7,8.25,PH,1708709083
214,fontaine-les-dijon,47.3424,5.0201,7.56,66,0,5.14,FR,1708709083
215,vallegrande,-18.4897,-64.1069,27.67,37,86,1.34,BO,1708709084
216,port alfred,-33.5906,26.891,23.43,93,44,3.13,ZA,1708709084
217,nadvoitsy,63.8667,34.3167,0.75,92,100,6.12,RU,1708709085
218,bizhbulyak,53.6967,54.2642,-20.96,100,19,0.91,RU,1708709085
219,west plains,36.7281,-91.8524,14.81,40,0,4.63,US,1708709086
220,bardai,11.65,7.2333,31.84,19,42,2.63,NG,1708709086
221,dolores,-36.3132,-57.6792,26.94,45,100,2.92,AR,1708709087
222,ust'-ilimsk,58.0006,102.6619,-24.2,99,87,2.24,RU,1708709087
223,wang saphung,17.301,101.7685,28.51,39,37,1.41,TH,1708709088
224,badger,64.8,-147.5333,-10.86,78,100,0.0,US,1708709088
225,scarborough,54.2797,-0.4044,7.03,81,71,1.79,GB,1708709023
226,port elizabeth,-33.918,25.5701,25.61,90,20,9.26,ZA,1708709089
227,essaouira,31.5125,-9.77,18.72,72,40,7.2,MA,1708709089
228,temirtau,50.0544,72.9483,-22.44,97,88,2.16,KZ,1708708951
229,cabedelo,-6.9811,-34.8339,31.37,68,19,5.94,BR,1708709096
230,sao joao da barra,-21.6403,-41.0511,32.05,83,83,4.4,BR,1708708842
231,selfoss,63.9331,-20.9971,0.02,83,12,4.17,IS,1708709097
232,garoowe,8.4054,48.4845,25.94,44,57,9.25,SO,1708709097
233,dzuunmod,48.2199,97.3744,-25.54,87,8,2.99,MN,1708709098
234,balykshi,47.0667,51.8667,-8.0,62,0,3.0,KZ,1708709099
235,kapuskasing,49.4169,-82.4331,-21.0,59,100,3.6,CA,1708709099
236,freetown,8.484,-13.2299,28.91,56,28,5.69,SL,1708708996
237,crane,31.3974,-102.3501,16.08,31,60,4.64,US,1708709100
238,dryden,49.7833,-92.7503,-16.84,66,20,2.06,CA,1708709100
239,st. john's,47.5649,-52.7093,2.1,91,95,2.24,CA,1708709102
240,geraldton,-28.7667,114.6,30.23,54,100,10.29,AU,1708709103
241,barentu,15.1139,37.5928,30.45,23,100,2.66,ER,1708709104
242,nicastro,38.9833,16.3167,13.21,67,75,4.12,IT,1708709105
243,penjamo,20.4333,-101.7333,25.97,12,15,0.46,MX,1708709107
244,gao,16.6362,1.637,32.36,7,0,1.66,ML,1708709107
245,el salto,20.3333,-104.5,27.05,13,25,0.56,MX,1708709108
246,port-vila,-17.7338,168.3219,26.45,87,63,5.47,VU,1708709109
247,ulimang,7.6242,134.6421,25.23,80,100,5.54,PW,1708709111
248,kristiansund,63.1115,7.732,5.36,81,75,4.12,NO,1708709112
249,vorgashor,67.5833,63.95,-8.03,95,100,5.4,RU,1708709112
250,saipan,15.1355,145.701,25.39,88,100,4.12,MP,1708709113
251,dedza,-14.3779,34.3332,17.13,93,100,0.88,MW,1708709115
252,kirkwall,58.9848,-2.9587,5.03,81,40,3.09,GB,1708709116
253,lishui,28.4604,119.9103,2.27,91,100,1.67,CN,1708709117
254,okha,53.5739,142.9478,-24.18,96,19,4.43,RU,1708709117
255,kayangel,8.0823,134.7173,27.22,79,97,7.02,PW,1708709118
256,uturoa,-16.7333,-151.4333,27.94,73,98,1.73,PF,1708709119
257,weno,7.4515,151.8468,26.97,94,100,4.12,FM,1708709119
258,tarko-sale,64.9225,77.785,-21.51,99,63,4.75,RU,1708709120
259,pabna,24.0,89.25,21.45,50,22,1.15,BD,1708709121
260,queenstown,-31.8976,26.8753,27.8,22,8,1.34,ZA,1708709122
261,sungailiat,-1.85,106.1333,26.59,87,87,4.02,ID,1708709122
262,mitchell,43.7094,-98.0298,6.99,53,0,6.69,US,1708709123
263,prieska,-29.6641,22.7474,28.07,34,96,0.13,ZA,1708709125
264,bechar,31.6167,-2.2167,24.18,13,81,4.63,DZ,1708709125
265,polyarnyy,69.1989,33.4478,1.82,86,100,9.18,RU,1708709127
266,holualoa,19.6228,-155.9522,18.21,72,12,1.14,US,1708709128
267,valparaiso,-33.0393,-71.6273,26.13,62,0,5.14,CL,1708708937
268,hermanus,-34.4187,19.2345,20.45,78,2,4.58,ZA,1708709129
269,butembo,0.15,29.2833,20.56,57,82,1.16,CD,1708709129
270,chulakkurgan,43.765,69.1814,-5.95,62,100,2.57,KZ,1708709129
271,puente nacional,5.8774,-73.6781,25.75,53,99,2.18,CO,1708709130
272,pacific grove,36.6177,-121.9166,12.6,82,0,0.89,US,1708709130
273,kruisfontein,-34.0033,24.7314,24.38,79,1,7.42,ZA,1708709131
274,lompoc,34.6391,-120.4579,17.66,79,0,4.63,US,1708709132
275,ciudad bolivar,8.1222,-63.5497,35.11,31,73,3.68,VE,1708709133
276,xishan,27.6667,113.5,-0.82,90,100,2.28,CN,1708709134
277,vadso,70.0744,29.7487,2.09,75,40,9.77,NO,1708709134
278,fort drum,44.0584,-75.7619,6.04,82,100,4.63,US,1708709135
279,carnarvon,-24.8667,113.6333,26.23,78,100,5.85,AU,1708709135
280,aykhal,66.0,111.5,-23.46,63,100,1.48,RU,1708709136
281,chibougamau,49.9168,-74.3659,-18.21,71,100,5.66,CA,1708709137
282,dudinka,69.4058,86.1778,-17.99,94,100,8.04,RU,1708709138
283,castillos,-34.1667,-53.8333,28.87,56,61,3.95,UY,1708709138
284,tolanaro,-25.0319,46.9987,26.04,83,20,8.23,MG,1708709139
285,anloga,5.7947,0.8973,28.94,77,95,5.0,GH,1708709140
286,bamboo flat,11.7,92.7167,26.05,83,20,1.03,IN,1708709140
287,happy valley-goose bay,53.3168,-60.3315,1.17,60,75,4.63,CA,1708709141
288,sungai raya,0.7,108.9,25.44,88,100,3.67,ID,1708709142
289,raisinghnagar,29.5358,73.4492,13.85,25,3,1.15,IN,1708709142
290,chadan,51.2833,91.5833,-33.05,95,19,1.49,RU,1708709143
291,as sulayyil,20.4607,45.5779,24.14,21,0,4.86,SA,1708709143
292,tazovsky,67.4667,78.7,-22.15,99,37,4.12,RU,1708709144
293,yorosso,12.3536,-4.7761,33.94,5,12,3.43,ML,1708709144
294,goure,13.9835,10.2704,29.56,20,0,2.44,NE,1708709145
295,bedford,52.1346,-0.4663,6.0,90,75,3.09,GB,1708709049
296,isla mujeres,21.2311,-86.731,26.03,57,16,4.74,MX,1708709146
297,suleja,9.1758,7.1808,27.2,29,100,0.35,NG,1708709146
298,fort bragg,35.139,-79.006,14.34,93,100,5.14,US,1708709146
299,gargalianoi,37.0667,21.6333,13.53,79,22,3.9,GR,1708709147
300,howard springs,-12.497,131.047,28.95,92,83,4.19,AU,1708709147
301,havre,49.5833,0.3333,6.22,75,75,4.63,FR,1708709148
302,kachug,53.9606,105.8817,-23.49,98,100,1.64,RU,1708709148
303,quesnel,52.9999,-122.5029,-0.72,100,75,5.14,CA,1708709149
304,machico,32.7,-16.7667,19.45,65,40,6.17,PT,1708709149
305,caraballeda,10.6112,-66.8522,33.26,49,29,3.6,VE,1708709150
306,nova vicosa,-17.8919,-39.3719,28.65,73,100,4.32,BR,1708709150
307,ust-nera,64.5667,143.2,-33.74,100,90,1.05,RU,1708709151
308,san patricio,28.017,-97.5169,23.98,48,13,5.87,US,1708709151
309,jayapura,-2.5333,140.7,23.66,91,100,1.54,ID,1708709152
310,alvaraes,-3.2208,-64.8042,33.93,33,81,2.59,BR,1708709152
311,sinop,41.7711,34.8709,6.24,58,100,2.87,TR,1708709153
312,puerto quijarro,-17.7833,-57.7667,24.67,88,100,2.0,BO,1708709153
313,palikir - national government center,6.9248,158.1611,23.41,100,75,1.54,FM,1708709154
314,centerville,39.6284,-84.1594,12.93,74,0,4.63,US,1708709154
315,zeya,53.75,127.2667,-24.17,97,6,1.84,RU,1708709155
316,kedougou,12.5579,-12.1743,37.32,14,20,3.09,SN,1708709156
317,cantel,14.8167,-91.45,25.1,25,0,0.0,GT,1708709156
318,az zuwaytinah,30.9522,20.1202,17.49,58,59,3.62,LY,1708709157
319,novopokrovskaya,45.9514,40.7006,5.33,71,59,6.85,RU,1708709157
320,bereznik,62.8551,42.7072,-1.56,93,99,4.39,RU,1708709158
321,tindouf,27.6711,-8.1474,26.25,21,100,12.86,DZ,1708709158
322,kununurra,-15.7667,128.7333,27.99,94,100,0.51,AU,1708709159
323,moranbah,-22.0016,148.0466,24.99,73,100,2.2,AU,1708709159
324,monguno,12.6786,13.6079,27.1,43,100,4.05,NG,1708709159
325,fortuna,40.5982,-124.1573,11.07,91,0,4.12,US,1708708995
326,madaoua,14.073,5.96,32.19,12,0,3.58,NE,1708709160
327,keflavik,64.0049,-22.5624,2.95,87,40,8.23,IS,1708709161
328,indre arna,60.4247,5.4764,4.25,98,100,1.87,NO,1708709161
329,salina cruz,16.1667,-95.2,28.47,60,10,2.87,MX,1708709162
330,inhambane,-23.865,35.3833,26.07,74,0,4.42,MZ,1708709162
331,sirte,31.2089,16.5887,16.47,60,0,1.67,LY,1708709163
332,colonia,50.9333,6.95,8.81,71,20,5.66,DE,1708709011
333,laguna,38.421,-121.4238,13.99,86,0,3.09,US,1708709164
334,el-tor,28.2364,33.6254,19.08,77,100,5.14,EG,1708709164
335,benghazi,32.1167,20.0667,17.57,60,62,3.4,LY,1708709165
336,copiapo,-27.3667,-70.3333,22.83,37,0,5.25,CL,1708708956
337,college,64.8569,-147.8028,-10.82,72,75,0.0,US,1708709165
338,yeppoon,-23.1333,150.7333,24.88,83,93,0.7,AU,1708709166
339,el nido,11.1858,119.3956,26.2,84,84,3.6,PH,1708709167
340,saint-pierre,-21.3393,55.4781,25.82,83,75,4.63,RE,1708709167
341,quatre cocos,-20.2078,57.7625,26.72,86,100,3.06,MU,1708709167
342,lebu,-37.6167,-73.65,16.3,71,15,8.43,CL,1708709168
343,jabor,5.921,169.6434,28.21,78,98,8.77,MH,1708708878
344,chinde,26.8418,88.0763,9.34,37,1,2.58,NP,1708709169
345,natal,-5.795,-35.2094,31.12,66,40,6.17,BR,1708709169
346,wad az zaki,14.4619,32.2065,32.18,30,88,4.77,SD,1708709169
347,al jawf,29.5,38.75,21.11,29,97,3.02,SA,1708709170
348,nema,57.5067,50.5011,-15.12,96,78,3.36,RU,1708709170
349,gaiman,-43.2897,-65.4929,19.79,21,28,3.61,AR,1708709171
350,pemba,-12.974,40.5178,28.39,83,75,4.12,MZ,1708709172
351,lauro de freitas,-12.8944,-38.3272,30.01,79,75,5.14,BR,1708709172
352,tura,25.5198,90.2201,18.14,29,39,0.98,IN,1708709173
353,haiku-pauwela,20.9219,-156.3051,22.25,74,30,2.68,US,1708709173
354,lee acres,35.1487,-106.647,11.62,33,40,4.63,US,1708709174
355,krasnyy chikoy,50.3643,108.7512,-22.43,100,94,0.75,RU,1708709174
356,berezovyy,51.6667,135.7,-23.49,94,10,1.81,RU,1708709175
357,suoyarvi,62.0833,32.35,0.71,98,100,5.13,RU,1708709175
358,san andres,12.5847,-81.7006,27.01,65,40,2.06,CO,1708709176
359,kondapalle,16.6167,80.5333,24.47,86,49,2.71,IN,1708709176
360,san borja,-14.8167,-66.85,29.69,70,100,2.82,BO,1708709177
361,north platte,41.1239,-100.7654,11.71,42,0,9.83,US,1708709177
362,antonio enes,-16.2325,39.9086,27.5,86,100,1.26,MZ,1708709178
363,tshabong,-26.05,22.45,23.84,61,86,13.23,BW,1708709178
364,poronaysk,49.2167,143.1167,-23.05,95,16,1.28,RU,1708709179
365,terme,41.2092,36.9739,7.96,81,63,4.82,TR,1708709180
366,kralendijk,12.15,-68.2667,30.99,51,40,4.63,BQ,1708709181
367,lamarque,-39.423,-65.7021,24.33,20,0,4.98,AR,1708709181
368,katabu,-4.9333,122.5167,24.82,93,81,0.65,ID,1708709182
369,simmerath,50.6,6.3,5.53,87,40,3.6,DE,1708709182
370,oued el abtal,35.456,0.6878,12.28,59,100,9.66,DZ,1708709183
371,banda aceh,5.5577,95.3222,26.26,86,20,4.56,ID,1708709183
372,dame-marie,18.5667,-74.4167,25.8,52,0,1.74,HT,1708709184
373,danjiangkou,32.5428,111.5086,-2.62,96,99,0.78,CN,1708709184
374,ponta delgada,37.7333,-25.6667,18.44,63,40,6.17,PT,1708709184
375,tazacorte,28.629,-17.9293,21.19,77,20,7.2,ES,1708709185
376,awjilah,29.1081,21.2869,19.63,33,52,3.08,LY,1708709185
377,kasongo,-4.45,26.6667,22.76,93,100,1.08,CD,1708709186
378,akureyri,65.6835,-18.0878,-0.04,93,100,9.77,IS,1708709186
379,amarante do maranhao,-5.5667,-46.7422,24.0,87,96,1.27,BR,1708709187
380,oskaloosa,41.2964,-92.6444,11.99,47,0,8.75,US,1708709187
381,payocpoc sur,16.4944,120.3281,25.32,81,6,1.65,PH,1708709188
382,nyurba,63.2842,118.3319,-31.12,100,98,1.07,RU,1708709188
383,vorkuta,67.5,64.0,-7.83,95,100,5.37,RU,1708709189
384,bryne,58.7354,5.6477,5.55,88,75,5.14,NO,1708709189
385,lerwick,60.1545,-1.1494,5.0,77,85,4.0,GB,1708709190
386,bang saphan,11.2126,99.5117,25.66,85,70,1.22,TH,1708709190
387,ancud,-41.8697,-73.8203,14.87,57,88,3.42,CL,1708709191
388,shira,54.4911,89.9531,-27.88,94,23,1.74,RU,1708709191
389,lieksa,63.3167,30.0167,1.07,97,100,7.27,FI,1708709192
390,trenton,40.217,-74.7429,9.11,87,75,2.06,US,1708709099
391,praia da vitoria,38.7333,-27.0667,17.09,67,20,0.96,PT,1708709197
392,bo rai,12.5728,102.5371,25.02,91,19,0.27,TH,1708709198
393,hasaki,35.7333,140.8333,2.94,58,100,10.23,JP,1708709198
394,kolonia,50.9333,6.95,8.81,71,20,5.66,DE,1708709143
395,aguas vermelhas,-15.7472,-41.46,28.2,56,100,2.99,BR,1708709199
396,tingo maria,-9.2895,-76.0088,27.17,78,100,2.57,PE,1708709199
397,mizunami,35.3667,137.25,4.07,81,74,1.78,JP,1708709200
398,kainantu,-6.2887,145.8655,16.53,99,98,1.1,PG,1708709200
399,nacala,-14.5428,40.6728,26.34,93,100,2.62,MZ,1708709201
400,tidjikja,18.5564,-11.4271,28.44,5,81,7.35,MR,1708709201
401,ust-tsilma,65.441,52.1498,-4.66,95,100,3.13,RU,1708709201
402,plouzane,48.3833,-4.6167,7.03,76,40,9.26,FR,1708709202
403,danville,36.586,-79.395,13.36,93,100,1.54,US,1708709202
404,celendin,-6.8703,-78.1517,21.29,40,37,1.62,PE,1708709203
405,tikapur,28.5,81.1333,12.77,17,0,1.66,NP,1708709203
406,kitale,1.0157,35.0062,19.53,50,89,2.17,KE,1708709203
407,sandnessjoen,66.0217,12.6316,5.29,60,75,10.8,NO,1708709173
408,bamyan,34.75,67.25,-19.9,79,94,2.38,AF,1708709204
409,tharyarwady,17.65,95.8,21.18,66,5,2.52,MM,1708709205
410,makaha,21.4694,-158.2175,23.95,88,100,0.0,US,1708709205
411,madimba,-10.4,40.3333,27.1,85,100,2.94,TZ,1708709205
412,san luis de la loma,17.2706,-100.8939,28.02,54,1,2.32,MX,1708709206
413,hastings,50.8552,0.5729,7.51,77,97,8.04,GB,1708709206
414,hell-ville,-13.4,48.2667,28.05,75,77,1.81,MG,1708709207
415,laojunmiao,39.8333,97.7333,-10.93,88,99,1.61,CN,1708709207
416,glace bay,46.1969,-59.957,3.31,82,75,3.13,CA,1708709208
417,korpilahti,62.0167,25.55,2.3,99,100,6.17,FI,1708709208
418,gazli,40.1333,63.45,2.59,71,100,6.43,UZ,1708709209
419,hamilton,39.1834,-84.5333,14.25,67,0,4.12,US,1708709209
420,trincomalee,8.5711,81.2335,27.21,73,97,2.9,LK,1708709210
421,ceelbuur,4.685,46.6176,27.85,50,91,10.8,SO,1708709131
422,gubkinskiy,64.434,76.5026,-21.11,99,50,4.94,RU,1708709211
423,mugia,43.1041,-9.2179,9.39,71,94,13.65,ES,1708709211
424,juneau,58.3019,-134.4197,2.0,100,75,1.54,US,1708709085
425,borba,-4.3878,-59.5939,35.15,40,76,2.48,BR,1708709212
426,kiamba,5.9894,124.6242,25.9,84,22,1.91,PH,1708709213
427,kamyshevatskaya,46.4132,37.9563,6.55,73,73,3.99,RU,1708709213
428,fort william,56.8165,-5.1121,4.61,93,91,1.55,GB,1708709213
429,shimoda,34.6667,138.95,2.28,80,99,6.68,JP,1708709214
430,benguela,-12.5763,13.4055,29.06,75,99,4.18,AO,1708709214
431,dunedin,-45.8742,170.5036,14.89,87,47,1.34,NZ,1708709214
432,viedma,-40.8135,-62.9967,21.23,32,0,7.94,AR,1708709215
433,kismayo,-0.3582,42.5454,27.29,84,100,6.73,SO,1708709215
434,yuzhno-kurilsk,44.0306,145.8556,-7.01,75,28,3.99,RU,1708709216
435,castro,-24.7911,-50.0119,28.63,52,3,2.33,BR,1708709216
436,coquimbo,-29.9533,-71.3436,23.85,60,0,6.17,CL,1708709216
437,hwange,-18.3693,26.5019,28.14,33,2,2.46,ZW,1708709217
438,kencong,-8.2833,113.3667,25.73,90,98,0.95,ID,1708709217
439,east ballina,-28.8667,153.5833,25.44,86,99,4.26,AU,1708709217
440,vernon,50.2581,-119.2691,7.2,92,29,2.57,CA,1708709122
441,guixi,28.2886,117.2133,1.27,99,100,0.99,CN,1708709218
442,vung tau,10.346,107.0843,26.24,86,5,8.85,VN,1708709218
443,regina,50.4501,-104.6178,-3.87,84,78,2.24,CA,1708708927
444,bacabal,-4.2917,-44.7917,28.56,77,92,0.65,BR,1708709120
445,seaside,36.6111,-121.8516,12.87,82,0,0.89,US,1708709219
446,nushki,29.5542,66.0215,11.47,25,0,1.01,PK,1708709220
447,vilyuysk,63.7553,121.6247,-31.67,100,99,0.89,RU,1708709220
448,wotho,10.1657,166.0102,26.33,84,100,10.29,MH,1708709221
449,nalut,30.3333,10.85,16.65,27,23,3.3,LY,1708709221
450,hooper,41.1638,-112.1224,6.81,68,20,6.17,US,1708709134
451,labrador city,52.9463,-66.9114,0.1,68,100,8.94,CA,1708709223
452,gadzhiyevo,69.2551,33.3362,1.65,86,100,9.23,RU,1708709223
453,inarajan village,13.2736,144.7484,26.08,94,99,6.91,GU,1708709224
454,hammerfest,70.6634,23.6821,3.25,75,0,5.66,NO,1708709225
455,aracoiaba,-4.3711,-38.8142,29.56,69,89,1.92,BR,1708709225
456,letlhakeng,-24.0944,25.0298,31.61,25,100,3.05,BW,1708709226
457,camacupa,-12.0167,17.4833,23.97,67,91,0.34,AO,1708709226
458,ballarat east,-37.5592,143.8744,10.33,77,19,0.89,AU,1708709226
459,diamantino,-14.4086,-56.4461,24.41,92,100,2.15,BR,1708709227
460,siracusa,37.0881,15.2792,16.77,77,97,6.97,IT,1708709122
461,faaa,-17.55,-149.6,28.98,74,0,4.92,PF,1708709228
462,villa vasquez,19.7411,-71.4464,27.38,31,0,3.12,DO,1708709228
463,mitu,1.1983,-70.1733,36.39,28,24,2.14,CO,1708709229
464,luderitz,-26.6481,15.1594,19.67,70,0,6.84,NA,1708709229
465,kingston,17.997,-76.7936,28.42,50,20,2.06,JM,1708709050
466,zaragoza,41.6561,-0.8773,13.9,34,20,6.69,ES,1708709228
467,camarinas,43.1311,-9.1817,9.4,72,96,13.0,ES,1708709231
468,hobyo,5.3505,48.5268,27.48,64,95,9.39,SO,1708709232
469,plettenberg bay,-34.0527,23.3716,20.76,89,16,1.89,ZA,1708709232
470,bagan,54.1001,77.6646,-26.24,98,80,2.14,RU,1708709233
471,extrema,-22.8547,-46.3183,26.24,72,35,2.36,BR,1708709233
472,sanctuary point,-35.1114,150.629,19.3,85,100,4.3,AU,1708709233
473,kone,-21.0595,164.8658,24.02,90,34,1.93,NC,1708709234
474,farafangana,-22.8167,47.8333,24.99,76,97,2.33,MG,1708709234
475,yeniseysk,58.4497,92.1703,-23.92,100,99,0.89,RU,1708709235
476,puri,19.8,85.85,24.29,84,2,3.51,IN,1708709235
477,mpulungu,-8.7623,31.1141,24.38,83,100,1.67,ZM,1708709236
478,west mersea,51.778,0.9187,6.97,86,79,5.53,GB,1708709236
479,balqash,46.8481,74.995,-15.66,97,16,3.41,KZ,1708709237
480,filingue,14.3521,3.3168,34.53,10,0,3.44,NE,1708709237
481,champerico,14.3,-91.9167,29.3,61,2,3.84,GT,1708709238
482,fomboni,-12.28,43.7425,29.19,70,97,0.65,KM,1708709238
483,sarangpur,23.5667,76.4667,19.72,33,2,2.08,IN,1708709238
484,flying fish cove,-10.4217,105.6791,25.82,88,43,1.54,CX,1708709239
485,selebi-phikwe,-21.979,27.8498,28.67,31,0,3.53,BW,1708709239
486,minas de marcona,-15.2119,-75.1103,24.64,60,30,4.89,PE,1708709240
487,cabugao,17.7931,120.4578,24.18,83,4,1.15,PH,1708709240
488,tarnogskiy gorodok,60.4997,43.5761,-3.61,92,100,4.38,RU,1708709241
489,goz beida,13.95,20.55,29.18,21,64,8.75,TD,1708709241
490,singkil,-7.9855,111.4161,25.94,93,100,0.96,ID,1708709242
491,puerto deseado,-47.7503,-65.8938,13.03,38,19,11.68,AR,1708708997
492,naousa,40.6329,22.0534,12.49,69,69,1.9,GR,1708709242
493,huangmei,30.1924,116.025,-1.52,94,100,2.05,CN,1708709243
494,brookings,44.3114,-96.7984,1.92,84,100,5.66,US,1708709130
495,vondrozo,-22.8167,47.2833,21.01,97,96,1.07,MG,1708709244
496,hadibu,12.65,54.0333,25.12,58,59,4.7,YE,1708709244
497,farasan,16.7022,42.1183,26.92,74,63,5.64,SA,1708709245
498,launceston,-41.45,147.1667,11.2,71,60,2.57,AU,1708709246
499,ta`u,-14.2336,-169.5144,27.97,75,100,3.75,AS,1708709246
500,guatrache,-37.6678,-63.5302,24.36,27,40,4.87,AR,1708709247
501,baidoa,3.1138,43.6498,32.18,32,100,5.73,SO,1708709248
502,copala,16.65,-98.9833,28.13,58,0,2.54,MX,1708709248
503,chaman,30.9236,66.4512,7.54,29,0,1.34,PK,1708709249
504,arno,60.1167,18.6333,1.55,80,89,6.43,SE,1708709129
505,taltal,-25.4,-70.4833,23.15,68,2,2.76,CL,1708709249
506,taupo,-38.6833,176.0833,12.61,85,48,2.0,NZ,1708709250
507,peralta,18.5816,-70.7703,25.79,46,1,3.3,DO,1708709250
508,qamdo,31.1667,97.2333,-7.16,45,73,2.15,CN,1708709251
509,nantucket,41.2835,-70.0995,7.3,87,100,3.6,US,1708709251
510,orenburg,51.7727,55.0988,-23.86,100,31,0.38,RU,1708709257
511,barbalha,-7.3111,-39.3042,30.89,62,75,1.54,BR,1708709258
512,mbaiki,3.8678,17.9892,30.19,30,100,1.62,CF,1708709259
513,xinghua,32.9392,119.8342,-1.95,96,100,2.54,CN,1708709260
514,onguday,50.75,86.15,-22.75,95,91,1.37,RU,1708709260
515,island harbour,50.724,-1.2758,7.9,81,76,1.34,GB,1708709260
516,seven pagodas,12.6264,80.1722,29.03,82,50,6.41,IN,1708709261
517,saint-joseph,-21.3667,55.6167,25.21,86,99,4.06,RE,1708709261
518,kegeyli shahar,42.7767,59.6078,-6.95,42,24,5.41,UZ,1708709261
519,canico,32.6333,-16.85,19.45,66,40,6.17,PT,1708709262
520,mogadishu,2.0371,45.3438,27.11,77,100,11.49,SO,1708709154
521,spring creek,40.7266,-115.5859,1.28,84,0,0.69,US,1708709263
522,colares,38.7992,-9.4469,13.83,79,75,10.28,PT,1708709263
523,forster,-32.1667,152.5167,23.49,94,68,6.06,AU,1708709263
524,ma'rib,15.4591,45.3253,24.74,21,28,3.27,YE,1708709264
525,naze,28.3667,129.4833,16.51,84,100,7.17,JP,1708709021
526,ciudad lazaro cardenas,17.9583,-102.2,27.29,61,35,1.83,MX,1708709265
527,port isabel,26.0734,-97.2086,26.13,59,0,8.23,US,1708709265
528,tlaltenango de sanchez roman,21.7833,-103.3167,22.46,16,100,1.04,MX,1708709168
529,faya-largeau,17.9257,19.1043,27.21,29,98,3.96,TD,1708709266
530,richards bay,-28.783,32.0377,26.45,76,31,7.21,ZA,1708709266
531,howrah,22.5892,88.3103,22.0,78,20,0.0,IN,1708709267
532,la ronge,55.1001,-105.2842,-9.86,73,40,5.14,CA,1708709267
533,ibb,13.9667,44.1833,18.39,51,30,1.56,YE,1708709268
534,kerouane,9.2667,-9.0167,34.96,8,24,2.67,GN,1708709268
535,hilo,19.7297,-155.09,21.25,95,75,1.79,US,1708709269
536,berriane,32.8265,3.7669,20.45,30,100,6.39,DZ,1708709269
537,lodwar,3.1191,35.5973,31.83,38,100,8.49,KE,1708709270
538,bangui,4.3612,18.555,32.98,31,100,0.28,CF,1708709270
539,sebastian,35.1668,-94.2669,17.21,46,0,3.94,US,1708709271
540,jidd hafs,26.2186,50.5478,20.99,72,0,2.57,BH,1708709271
541,west fargo,46.875,-96.9004,-2.0,69,100,6.69,US,1708709019
542,sandpoint,48.2766,-116.5533,5.25,84,100,0.0,US,1708709241
543,omaruru,-21.4333,15.9333,29.92,31,77,5.0,NA,1708709272
544,karagandy,49.8019,73.1021,-22.03,97,95,1.91,KZ,1708709273
545,magadan,59.5667,150.8,-25.22,85,86,3.43,RU,1708709273
546,nikolayevsk-on-amure,53.1406,140.73,-25.21,98,33,1.6,RU,1708709274
547,dickinson,29.4608,-95.0513,23.88,47,0,6.69,US,1708709114
548,fisterra,42.9049,-9.2629,9.3,68,80,14.62,ES,1708709274
549,igrim,63.1906,64.4162,-5.83,95,100,3.92,RU,1708709275
550,piton saint-leu,-21.2196,55.3151,24.06,83,75,4.63,RE,1708709275
551,eno,62.8051,30.1542,1.16,98,100,6.07,FI,1708709275
552,hailey,43.5196,-114.3153,-2.08,59,0,5.14,US,1708709276
553,salamanca,40.8333,-6.0,5.0,87,92,9.64,ES,1708709276
554,kourou,5.1552,-52.6478,31.03,64,31,4.24,GF,1708709277
555,jaggayyapeta,16.9,80.1,24.99,81,38,3.38,IN,1708709155
556,mount darwin,-16.7725,31.5838,23.66,50,7,1.01,ZW,1708709278
557,porto novo,6.4965,2.6036,28.9,64,89,0.52,BJ,1708709278
558,lock haven,41.137,-77.4469,10.34,74,100,1.71,US,1708709278
559,quillota,-32.8833,-71.2667,25.33,41,65,3.47,CL,1708709088
560,saint john,45.2727,-66.0677,2.57,100,100,9.26,CA,1708709123
561,cockburn town,21.4612,-71.1419,23.9,55,36,5.05,TC,1708709279
562,bairnsdale,-37.8333,147.6167,11.88,77,13,3.16,AU,1708709280
563,mancio lima,-7.6142,-72.8958,33.04,66,75,4.63,BR,1708709280
564,karad,17.2833,74.2,21.57,47,5,2.34,IN,1708709281
565,gamboma,-1.8764,15.8644,28.54,69,100,2.13,CG,1708709281
566,jackson,42.4165,-122.8345,10.58,81,0,0.45,US,1708709282
567,pechora,65.1472,57.2244,-6.75,95,100,4.02,RU,1708709282
568,dharan,26.8125,87.2835,14.94,26,0,2.46,NP,1708709283
569,nizhneudinsk,54.9076,99.0276,-26.28,98,56,1.42,RU,1708709283
570,juan griego,11.0817,-63.9655,30.07,58,6,7.2,VE,1708709283
571,tosontsengel,48.7567,98.2839,-31.49,100,80,0.49,MN,1708709284
572,jalai nur,49.45,117.7,-24.42,98,100,1.64,CN,1708709284
573,al ghayzah,16.2079,52.176,24.97,56,61,3.48,YE,1708709284
574,abdulino,53.7,53.6667,-21.59,98,10,0.49,RU,1708709285
575,rio grande,-32.035,-52.0986,32.06,61,63,3.96,BR,1708709115
576,bolo,13.7899,120.9817,23.89,86,81,4.04,PH,1708709285
577,ujae,8.9322,165.7642,27.26,84,64,10.19,MH,1708709286
578,golfito,8.639,-83.166,31.3,55,4,1.77,CR,1708709286
579,oyama,36.3,139.8,5.33,64,100,2.43,JP,1708709286
580,opuwo,-18.0607,13.84,29.37,29,77,6.68,NA,1708709287
581,nemuro,43.3236,145.575,-7.57,59,91,4.39,JP,1708709287
582,tanabe,33.7333,135.3667,3.25,81,48,6.15,JP,1708709288
583,malanje,-9.5402,16.341,21.66,90,96,2.11,AO,1708709288
584,zaozersk,69.4005,32.4476,1.52,88,100,8.85,RU,1708709289
585,hiratacho,35.4333,132.8167,6.01,70,100,4.63,JP,1708709289
586,kimbe,-5.5502,150.1429,25.18,94,100,0.42,PG,1708709290
587,uliastay,47.7417,96.8444,-25.39,92,15,3.18,MN,1708709290
588,antsiranana,-12.2787,49.2917,25.64,87,62,3.26,MG,1708709291
589,katsuren-haebaru,26.3369,127.8719,20.22,75,100,2.57,JP,1708709291
